{
  "type": "FeatureCollection",
  "features": [
    {
      "type": "Feature",
      "geometry": {
        "type": "Point",
        "coordinates": [
          15.6159974,
          50.6904993
        ]
      },
      "properties": {
        "@type": "node",
        "@id": 25808394,
        "@url": "https://www.openstreetmap.org/node/25808394",
        "bicycle": "yes",
        "ele": "976",
        "highway": "emergency_access_point",
        "hiking": "yes",
        "information": "guidepost",
        "name": "U Krásné Pláně",
        "note": "ref cyklotrasy KRNAP: MT012",
        "operator": "cz:KČT",
        "ref": "TK302",
        "ski": "yes",
        "tourism": "information"
      }
    },
    {
      "type": "Feature",
      "geometry": {
        "type": "Point",
        "coordinates": [
          13.2257533,
          49.1728745
        ]
      },
      "properties": {
        "@type": "node",
        "@id": 49915307,
        "@url": "https://www.openstreetmap.org/node/49915307",
        "ele": "975",
        "mountain_pass": "yes",
        "name": "Špičácké sedlo",
        "natural": "saddle",
        "wikidata": "Q10413467",
        "wikipedia": "cs:Špičácké sedlo"
      }
    },
    {
      "type": "Feature",
      "geometry": {
        "type": "Point",
        "coordinates": [
          17.1573178,
          50.1245991
        ]
      },
      "properties": {
        "@type": "node",
        "@id": 196059620,
        "@url": "https://www.openstreetmap.org/node/196059620",
        "aerialway": "pylon",
        "ele": "970"
      }
    },
    {
      "type": "Feature",
      "geometry": {
        "type": "Point",
        "coordinates": [
          15.1820227,
          50.8524449
        ]
      },
      "properties": {
        "@type": "node",
        "@id": 205416812,
        "@url": "https://www.openstreetmap.org/node/205416812",
        "ele": "904.4",
        "name": "Krásná Máří",
        "name:de": "Schöne Marie",
        "tourism": "viewpoint"
      }
    },
    {
      "type": "Feature",
      "geometry": {
        "type": "Point",
        "coordinates": [
          18.5424622,
          49.4985209
        ]
      },
      "properties": {
        "@type": "node",
        "@id": 207044939,
        "@url": "https://www.openstreetmap.org/node/207044939",
        "ele": "900",
        "email": "sulovhorskachata@gmail.com",
        "name": "Horská chata Sulov",
        "phone": "+420 773 126 350",
        "website": "http://www.sulov.info/"
      }
    },
    {
      "type": "Feature",
      "geometry": {
        "type": "Point",
        "coordinates": [
          13.7746457,
          48.9830197
        ]
      },
      "properties": {
        "@type": "node",
        "@id": 226658426,
        "@url": "https://www.openstreetmap.org/node/226658426",
        "ele": "995",
        "name": "Kubova Huť",
        "operator": "cz:SŽDC",
        "public_transport": "station",
        "railway": "station",
        "railway:ref": "751628",
        "wikidata": "Q66888406"
      }
    },
    {
      "type": "Feature",
      "geometry": {
        "type": "Point",
        "coordinates": [
          15.4850277,
          50.7498472
        ]
      },
      "properties": {
        "@type": "node",
        "@id": 255446846,
        "@url": "https://www.openstreetmap.org/node/255446846",
        "bicycle": "yes",
        "ele": "975",
        "highway": "emergency_access_point",
        "hiking": "yes",
        "information": "guidepost",
        "mapillary": "143114375346125",
        "name": "Ručičky",
        "note": "ref cyklotrasy KRNAP: MT004",
        "operator": "cz:KČT",
        "ref": "SK052;MT004",
        "source": "survey",
        "tourism": "information"
      }
    },
    {
      "type": "Feature",
      "geometry": {
        "type": "Point",
        "coordinates": [
          15.4487461,
          50.7485778
        ]
      },
      "properties": {
        "@type": "node",
        "@id": 255454686,
        "@url": "https://www.openstreetmap.org/node/255454686",
        "bicycle": "yes",
        "ele": "930",
        "highway": "emergency_access_point",
        "hiking": "yes",
        "information": "guidepost",
        "name": "Studenov",
        "note": "ref KRNAP: MT053",
        "operator": "cz:KČT",
        "ref": "SK104",
        "source": "survey",
        "tourism": "information"
      }
    },
    {
      "type": "Feature",
      "geometry": {
        "type": "Point",
        "coordinates": [
          13.9776398,
          48.7146731
        ]
      },
      "properties": {
        "@type": "node",
        "@id": 268779578,
        "@url": "https://www.openstreetmap.org/node/268779578",
        "ele": "914",
        "natural": "peak"
      }
    },
    {
      "type": "Feature",
      "geometry": {
        "type": "Point",
        "coordinates": [
          14.1362126,
          48.6360475
        ]
      },
      "properties": {
        "@type": "node",
        "@id": 268779928,
        "@url": "https://www.openstreetmap.org/node/268779928",
        "ele": "975",
        "name": "Bukový vrch",
        "natural": "peak"
      }
    },
    {
      "type": "Feature",
      "geometry": {
        "type": "Point",
        "coordinates": [
          14.2541481,
          48.5914829
        ]
      },
      "properties": {
        "@type": "node",
        "@id": 268780301,
        "@url": "https://www.openstreetmap.org/node/268780301",
        "ele": "952",
        "natural": "peak",
        "source": "ČÚZK"
      }
    },
    {
      "type": "Feature",
      "geometry": {
        "type": "Point",
        "coordinates": [
          14.20292,
          48.6062386
        ]
      },
      "properties": {
        "@type": "node",
        "@id": 268780303,
        "@url": "https://www.openstreetmap.org/node/268780303",
        "ele": "949",
        "name": "Nad Lipovou",
        "natural": "peak"
      }
    },
    {
      "type": "Feature",
      "geometry": {
        "type": "Point",
        "coordinates": [
          14.1945407,
          48.6135026
        ]
      },
      "properties": {
        "@type": "node",
        "@id": 268780307,
        "@url": "https://www.openstreetmap.org/node/268780307",
        "ele": "930",
        "name": "Kraví hora",
        "natural": "peak"
      }
    },
    {
      "type": "Feature",
      "geometry": {
        "type": "Point",
        "coordinates": [
          14.2478472,
          48.6073427
        ]
      },
      "properties": {
        "@type": "node",
        "@id": 268780447,
        "@url": "https://www.openstreetmap.org/node/268780447",
        "ele": "927",
        "name": "Uhlířský vrch",
        "name:cs": "Uhlířský vrch",
        "name:de": "Kohlenhügel",
        "natural": "peak",
        "source": "ČÚZK"
      }
    },
    {
      "type": "Feature",
      "geometry": {
        "type": "Point",
        "coordinates": [
          14.2959,
          48.5916318
        ]
      },
      "properties": {
        "@type": "node",
        "@id": 268780449,
        "@url": "https://www.openstreetmap.org/node/268780449",
        "ele": "940",
        "name": "Hradiště",
        "natural": "peak",
        "source": "ČÚZK"
      }
    },
    {
      "type": "Feature",
      "geometry": {
        "type": "Point",
        "coordinates": [
          14.2903814,
          48.5825632
        ]
      },
      "properties": {
        "@type": "node",
        "@id": 268780451,
        "@url": "https://www.openstreetmap.org/node/268780451",
        "ele": "984",
        "name": "Jezevčí vrch",
        "name:cs": "Jezevčí vrch",
        "name:de": "Dachshügel",
        "natural": "peak"
      }
    },
    {
      "type": "Feature",
      "geometry": {
        "type": "Point",
        "coordinates": [
          14.2973659,
          48.5727463
        ]
      },
      "properties": {
        "@type": "node",
        "@id": 268780459,
        "@url": "https://www.openstreetmap.org/node/268780459",
        "ele": "938",
        "name": "Kamenná",
        "natural": "peak"
      }
    },
    {
      "type": "Feature",
      "geometry": {
        "type": "Point",
        "coordinates": [
          14.6606804,
          48.6092276
        ]
      },
      "properties": {
        "@type": "node",
        "@id": 268782475,
        "@url": "https://www.openstreetmap.org/node/268782475",
        "ele": "993",
        "natural": "peak",
        "source": "ČÚZK"
      }
    },
    {
      "type": "Feature",
      "geometry": {
        "type": "Point",
        "coordinates": [
          13.1114858,
          50.4245092
        ]
      },
      "properties": {
        "@type": "node",
        "@id": 274608444,
        "@url": "https://www.openstreetmap.org/node/274608444",
        "ele": "910",
        "name": "Mědník",
        "name:de": "Kupferhübel",
        "natural": "peak",
        "source:ele": "cs.wikipedia.org",
        "wikidata": "Q1764571",
        "wikipedia": "cs:Mědník"
      }
    },
    {
      "type": "Feature",
      "geometry": {
        "type": "Point",
        "coordinates": [
          13.5689097,
          49.1901917
        ]
      },
      "properties": {
        "@type": "node",
        "@id": 276773402,
        "@url": "https://www.openstreetmap.org/node/276773402",
        "ele": "902",
        "name": "Sedlo",
        "natural": "peak",
        "wikidata": "Q12051267",
        "wikipedia": "cs:Sedlo (Šumavské podhůří)"
      }
    },
    {
      "type": "Feature",
      "geometry": {
        "type": "Point",
        "coordinates": [
          18.8390809,
          49.595319
        ]
      },
      "properties": {
        "@type": "node",
        "@id": 284599363,
        "@url": "https://www.openstreetmap.org/node/284599363",
        "ele": "990",
        "name": "Kiczory / Kyčera",
        "name:cs": "Kyčera",
        "name:pl": "Kiczory",
        "natural": "peak",
        "prominence": "253",
        "wikidata": "Q11738939",
        "wikipedia": "pl:Kiczory (szczyt)"
      }
    },
    {
      "type": "Feature",
      "geometry": {
        "type": "Point",
        "coordinates": [
          13.6315827,
          49.066332
        ]
      },
      "properties": {
        "@type": "node",
        "@id": 287164326,
        "@url": "https://www.openstreetmap.org/node/287164326",
        "aerialway": "station",
        "ele": "952.3",
        "name": "LA Zadov",
        "public_transport": "station"
      }
    },
    {
      "type": "Feature",
      "geometry": {
        "type": "Point",
        "coordinates": [
          18.2454423,
          49.2948275
        ]
      },
      "properties": {
        "@type": "node",
        "@id": 291202942,
        "@url": "https://www.openstreetmap.org/node/291202942",
        "beds": "50",
        "dog": "no",
        "ele": "930",
        "internet_access": "wlan",
        "internet_access:fee": "no",
        "name": "Hotel Portáš",
        "tourism": "alpine_hut",
        "url": "https://hiking.dennikn.sk/ar/877/horsky_hotel_portas.html",
        "website": "https://www.hotelportas.cz/"
      }
    },
    {
      "type": "Feature",
      "geometry": {
        "type": "Point",
        "coordinates": [
          18.4026288,
          49.3957856
        ]
      },
      "properties": {
        "@type": "node",
        "@id": 291203683,
        "@url": "https://www.openstreetmap.org/node/291203683",
        "created_by": "Potlatch 0.10b",
        "ele": "919",
        "natural": "spring"
      }
    },
    {
      "type": "Feature",
      "geometry": {
        "type": "Point",
        "coordinates": [
          18.3632497,
          49.4050968
        ]
      },
      "properties": {
        "@type": "node",
        "@id": 291203768,
        "@url": "https://www.openstreetmap.org/node/291203768",
        "created_by": "Potlatch 0.10b",
        "ele": "962",
        "name": "Rožnovská Bečva",
        "natural": "spring"
      }
    },
    {
      "type": "Feature",
      "geometry": {
        "type": "Point",
        "coordinates": [
          18.1905765,
          49.3868644
        ]
      },
      "properties": {
        "@type": "node",
        "@id": 291204245,
        "@url": "https://www.openstreetmap.org/node/291204245",
        "ele": "911",
        "name": "Tanečnice",
        "natural": "peak",
        "source": "ČÚZK"
      }
    },
    {
      "type": "Feature",
      "geometry": {
        "type": "Point",
        "coordinates": [
          18.323493,
          49.312368
        ]
      },
      "properties": {
        "@type": "node",
        "@id": 291205543,
        "@url": "https://www.openstreetmap.org/node/291205543",
        "ele": "985",
        "hiking": "yes",
        "information": "guidepost",
        "name": "Sedlo Bukovina",
        "operator": "KST",
        "ref": "0842/2,0",
        "tourism": "information"
      }
    },
    {
      "type": "Feature",
      "geometry": {
        "type": "Point",
        "coordinates": [
          13.7319674,
          50.6992007
        ]
      },
      "properties": {
        "@type": "node",
        "@id": 302045891,
        "@url": "https://www.openstreetmap.org/node/302045891",
        "description:de": "Höhenangabe auf der Marke",
        "ele": "909.4",
        "man_made": "summit_cross",
        "name": "Pramenáč",
        "name:de": "Bornhauberg",
        "natural": "peak",
        "wikidata": "Q1523034",
        "wikipedia": "cs:Pramenáč (Krušné hory)"
      }
    },
    {
      "type": "Feature",
      "geometry": {
        "type": "Point",
        "coordinates": [
          15.4239584,
          50.7615092
        ]
      },
      "properties": {
        "@type": "node",
        "@id": 304782212,
        "@url": "https://www.openstreetmap.org/node/304782212",
        "ele": "950",
        "hiking": "yes",
        "information": "guidepost",
        "name": "Pod Čertovou horou",
        "ref": "SK138",
        "source": "survey",
        "tourism": "information"
      }
    },
    {
      "type": "Feature",
      "geometry": {
        "type": "Point",
        "coordinates": [
          18.282718,
          49.303469
        ]
      },
      "properties": {
        "@type": "node",
        "@id": 322809304,
        "@url": "https://www.openstreetmap.org/node/322809304",
        "ele": "930",
        "hiking": "yes",
        "information": "guidepost",
        "name": "Frňovské sedlo",
        "operator": "cz:KČT",
        "ref": "VS443",
        "tourism": "information"
      }
    },
    {
      "type": "Feature",
      "geometry": {
        "type": "Point",
        "coordinates": [
          13.3356251,
          49.1767072
        ]
      },
      "properties": {
        "@type": "node",
        "@id": 324581991,
        "@url": "https://www.openstreetmap.org/node/324581991",
        "ele": "920",
        "hiking": "yes",
        "information": "guidepost",
        "name": "Zhůří",
        "operator": "cz:KČT",
        "ref": "SE088",
        "ski": "yes",
        "ski:nordic": "yes",
        "source": "survey",
        "tourism": "information"
      }
    },
    {
      "type": "Feature",
      "geometry": {
        "type": "Point",
        "coordinates": [
          13.2639927,
          49.1443641
        ]
      },
      "properties": {
        "@type": "node",
        "@id": 325114730,
        "@url": "https://www.openstreetmap.org/node/325114730",
        "ele": "968",
        "hiking": "yes",
        "information": "guidepost",
        "name": "Nad pošťákem",
        "name:cs": "Nad pošťákem",
        "operator": "cz:KČT",
        "place": "locality",
        "ref": "KT242",
        "source": "survey",
        "tourism": "information"
      }
    },
    {
      "type": "Feature",
      "geometry": {
        "type": "Point",
        "coordinates": [
          13.2726404,
          49.1839105
        ]
      },
      "properties": {
        "@type": "node",
        "@id": 325133005,
        "@url": "https://www.openstreetmap.org/node/325133005",
        "ele": "998",
        "hiking": "yes",
        "information": "guidepost",
        "name": "Nový Brunst (háj.)",
        "operator": "cz:KČT",
        "ref": "KT172",
        "ski": "yes",
        "source": "survey",
        "tourism": "information"
      }
    },
    {
      "type": "Feature",
      "geometry": {
        "type": "Point",
        "coordinates": [
          13.2904362,
          49.2023664
        ]
      },
      "properties": {
        "@type": "node",
        "@id": 325133079,
        "@url": "https://www.openstreetmap.org/node/325133079",
        "ele": "978",
        "hiking": "yes",
        "information": "guidepost",
        "name": "U obrázku",
        "operator": "cz:KČT",
        "ref": "KT228",
        "source": "survey",
        "tourism": "information"
      }
    },
    {
      "type": "Feature",
      "geometry": {
        "type": "Point",
        "coordinates": [
          13.2259535,
          49.1728293
        ]
      },
      "properties": {
        "@type": "node",
        "@id": 325216684,
        "@url": "https://www.openstreetmap.org/node/325216684",
        "ele": "975",
        "hiking": "yes",
        "information": "guidepost",
        "name": "Špičácké sedlo",
        "operator": "cz:KČT",
        "ref": "KT038",
        "ski": "yes",
        "source": "survey",
        "tourism": "information"
      }
    },
    {
      "type": "Feature",
      "geometry": {
        "type": "Point",
        "coordinates": [
          17.0692413,
          50.1793336
        ]
      },
      "properties": {
        "@type": "node",
        "@id": 325791371,
        "@url": "https://www.openstreetmap.org/node/325791371",
        "bicycle": "yes",
        "description": "500 m po červené značce směr Ramzová pramen a kaplička Dobrá voda",
        "ele": "975",
        "hiking": "yes",
        "information": "guidepost",
        "name": "Nad Dobrou vodou",
        "operator": "cz:KČT",
        "ref": "JE365",
        "ski": "yes",
        "tourism": "information"
      }
    },
    {
      "type": "Feature",
      "geometry": {
        "type": "Point",
        "coordinates": [
          15.4750371,
          50.7509681
        ]
      },
      "properties": {
        "@type": "node",
        "@id": 326921486,
        "@url": "https://www.openstreetmap.org/node/326921486",
        "ele": "974",
        "name": "Čertova pláň",
        "name:cs": "Čertova pláň",
        "natural": "peak",
        "source": "ČÚZK",
        "wikidata": "Q9393804",
        "wikipedia": "cs:Čertova pláň (Krkonoše)"
      }
    },
    {
      "type": "Feature",
      "geometry": {
        "type": "Point",
        "coordinates": [
          14.9874095,
          50.7301283
        ]
      },
      "properties": {
        "@type": "node",
        "@id": 335648217,
        "@url": "https://www.openstreetmap.org/node/335648217",
        "bicycle": "yes",
        "ele": "930",
        "hiking": "yes",
        "information": "guidepost",
        "name": "Ještědka",
        "operator": "cz:KČT",
        "ref": "LB049",
        "tourism": "information"
      }
    },
    {
      "type": "Feature",
      "geometry": {
        "type": "Point",
        "coordinates": [
          15.2101249,
          50.8434767
        ]
      },
      "properties": {
        "@type": "node",
        "@id": 343509873,
        "@url": "https://www.openstreetmap.org/node/343509873",
        "ele": "943",
        "hiking": "yes",
        "information": "guidepost",
        "name": "Na Žďárku",
        "operator": "cz:KČT",
        "ref": "LB198",
        "ski": "yes",
        "source": "survey",
        "tourism": "information"
      }
    },
    {
      "type": "Feature",
      "geometry": {
        "type": "Point",
        "coordinates": [
          15.2032838,
          50.8467263
        ]
      },
      "properties": {
        "@type": "node",
        "@id": 343509876,
        "@url": "https://www.openstreetmap.org/node/343509876",
        "ele": "903",
        "hiking": "yes",
        "information": "guidepost",
        "name": "U Tetřeví boudy",
        "operator": "cz:KČT",
        "ref": "0313/6;LB005",
        "source": "survey",
        "tourism": "information"
      }
    },
    {
      "type": "Feature",
      "geometry": {
        "type": "Point",
        "coordinates": [
          15.2189252,
          50.8419414
        ]
      },
      "properties": {
        "@type": "node",
        "@id": 343509890,
        "@url": "https://www.openstreetmap.org/node/343509890",
        "ele": "926",
        "hiking": "yes",
        "information": "guidepost",
        "name": "Nad černým potokem",
        "operator": "cz:KČT",
        "ref": "LB199",
        "ski": "yes",
        "source": "survey",
        "tourism": "information"
      }
    },
    {
      "type": "Feature",
      "geometry": {
        "type": "Point",
        "coordinates": [
          15.181855,
          50.8516858
        ]
      },
      "properties": {
        "@type": "node",
        "@id": 343509965,
        "@url": "https://www.openstreetmap.org/node/343509965",
        "ele": "900",
        "hiking": "yes",
        "information": "guidepost",
        "name": "Krásná Máří",
        "name:de": "Schöne Marie",
        "operator": "cz:KČT",
        "ref": "LB006",
        "source": "survey",
        "tourism": "information"
      }
    },
    {
      "type": "Feature",
      "geometry": {
        "type": "Point",
        "coordinates": [
          15.3346746,
          50.8171938
        ]
      },
      "properties": {
        "@type": "node",
        "@id": 343511720,
        "@url": "https://www.openstreetmap.org/node/343511720",
        "ele": "905",
        "hiking": "yes",
        "information": "guidepost",
        "name": "Promenádní - u bunkru",
        "operator": "cz:KČT",
        "ref": "LB311",
        "ski": "yes",
        "source": "survey",
        "tourism": "information"
      }
    },
    {
      "type": "Feature",
      "geometry": {
        "type": "Point",
        "coordinates": [
          15.2750559,
          50.8807772
        ]
      },
      "properties": {
        "@type": "node",
        "@id": 343512780,
        "@url": "https://www.openstreetmap.org/node/343512780",
        "ele": "931",
        "hiking": "yes",
        "information": "guidepost",
        "name": "Nebeský žebřík",
        "name:de": "Himmelsleiter (untere Kreuzung)",
        "operator": "cz:KČT",
        "ref": "LB071",
        "ski": "yes",
        "source": "survey",
        "tourism": "information"
      }
    },
    {
      "type": "Feature",
      "geometry": {
        "type": "Point",
        "coordinates": [
          15.2693452,
          50.8713998
        ]
      },
      "properties": {
        "@type": "node",
        "@id": 343639191,
        "@url": "https://www.openstreetmap.org/node/343639191",
        "ele": "979",
        "name": "Klínový vrch",
        "natural": "peak",
        "source": "cuzk:km"
      }
    },
    {
      "type": "Feature",
      "geometry": {
        "type": "Point",
        "coordinates": [
          15.3343127,
          50.8429563
        ]
      },
      "properties": {
        "@type": "node",
        "@id": 343639497,
        "@url": "https://www.openstreetmap.org/node/343639497",
        "ele": "975",
        "name": "Pytlácké kameny",
        "name:de": "Raubschützenfelsen",
        "natural": "peak",
        "note": "poloha odhadem",
        "source": "cs.wikipedia.org",
        "wikidata": "Q11832215"
      }
    },
    {
      "type": "Feature",
      "geometry": {
        "type": "Point",
        "coordinates": [
          15.2575805,
          50.8714671
        ]
      },
      "properties": {
        "@type": "node",
        "@id": 343640384,
        "@url": "https://www.openstreetmap.org/node/343640384",
        "ele": "944",
        "name": "Paličník",
        "natural": "peak",
        "source": "cs.wikipedia.org;survey",
        "tourism": "viewpoint"
      }
    },
    {
      "type": "Feature",
      "geometry": {
        "type": "Point",
        "coordinates": [
          13.0860711,
          50.4605567
        ]
      },
      "properties": {
        "@type": "node",
        "@id": 344118416,
        "@url": "https://www.openstreetmap.org/node/344118416",
        "ele": "965",
        "name": "Velký Špičák",
        "name:de": "Spitz-Berg",
        "natural": "peak",
        "source": "cuzk:km;cs.wikipedia.org",
        "wikidata": "Q2512505",
        "wikipedia": "cs:Velký Špičák (Krušné hory)"
      }
    },
    {
      "type": "Feature",
      "geometry": {
        "type": "Point",
        "coordinates": [
          15.355216,
          50.8287562
        ]
      },
      "properties": {
        "@type": "node",
        "@id": 347048990,
        "@url": "https://www.openstreetmap.org/node/347048990",
        "ele": "982",
        "natural": "peak",
        "source": "uhul:vrstevnice;ČÚZK"
      }
    },
    {
      "type": "Feature",
      "geometry": {
        "type": "Point",
        "coordinates": [
          15.270421,
          50.8531361
        ]
      },
      "properties": {
        "@type": "node",
        "@id": 347048997,
        "@url": "https://www.openstreetmap.org/node/347048997",
        "ele": "905",
        "name": "Zadní kopec",
        "name:de": "Hinter Berg",
        "natural": "peak",
        "source": "uhul:vrstevnice"
      }
    },
    {
      "type": "Feature",
      "geometry": {
        "type": "Point",
        "coordinates": [
          15.2271781,
          50.8147937
        ]
      },
      "properties": {
        "@type": "node",
        "@id": 347049016,
        "@url": "https://www.openstreetmap.org/node/347049016",
        "ele": "956",
        "natural": "peak",
        "source": "uhul:vrstevnice"
      }
    },
    {
      "type": "Feature",
      "geometry": {
        "type": "Point",
        "coordinates": [
          15.2982243,
          50.7936797
        ]
      },
      "properties": {
        "@type": "node",
        "@id": 347049063,
        "@url": "https://www.openstreetmap.org/node/347049063",
        "ele": "908",
        "historic": "ruins",
        "name": "Desenský vrch",
        "name:de": "Börnerkaspersbruch",
        "natural": "peak",
        "source": "uhul:vrstevnice",
        "wikidata": "Q92382914"
      }
    },
    {
      "type": "Feature",
      "geometry": {
        "type": "Point",
        "coordinates": [
          15.2936707,
          50.8458659
        ]
      },
      "properties": {
        "@type": "node",
        "@id": 347049131,
        "@url": "https://www.openstreetmap.org/node/347049131",
        "ele": "924",
        "natural": "peak",
        "source": "uhul:vrstevnice"
      }
    },
    {
      "type": "Feature",
      "geometry": {
        "type": "Point",
        "coordinates": [
          15.337209,
          50.8064465
        ]
      },
      "properties": {
        "@type": "node",
        "@id": 347049302,
        "@url": "https://www.openstreetmap.org/node/347049302",
        "ele": "993",
        "name": "Bílé kameny",
        "natural": "peak",
        "source": "uhul:vrstevnice",
        "source:name": "cuzk:km"
      }
    },
    {
      "type": "Feature",
      "geometry": {
        "type": "Point",
        "coordinates": [
          15.4566015,
          50.7474313
        ]
      },
      "properties": {
        "@type": "node",
        "@id": 347062360,
        "@url": "https://www.openstreetmap.org/node/347062360",
        "ele": "989",
        "name": "Studená",
        "name:cs": "Studená",
        "name:de": "Kaltenberg",
        "natural": "peak",
        "source": "uhul:vrstevnice",
        "wikidata": "Q9347331",
        "wikipedia": "cs:Studená (Krkonoše)"
      }
    },
    {
      "type": "Feature",
      "geometry": {
        "type": "Point",
        "coordinates": [
          15.4546003,
          50.7659002
        ]
      },
      "properties": {
        "@type": "node",
        "@id": 347062361,
        "@url": "https://www.openstreetmap.org/node/347062361",
        "ele": "951",
        "name": "Ptačinec",
        "natural": "peak",
        "source": "ČÚZK",
        "wikidata": "Q12047542",
        "wikipedia": "cs:Ptačinec (Krkonoše)"
      }
    },
    {
      "type": "Feature",
      "geometry": {
        "type": "Point",
        "coordinates": [
          15.3300573,
          50.8133372
        ]
      },
      "properties": {
        "@type": "node",
        "@id": 349313362,
        "@url": "https://www.openstreetmap.org/node/349313362",
        "ele": "966",
        "historic": "ruins",
        "name": "Skály",
        "name:de": "Steinel",
        "natural": "peak",
        "note": "FIXME: poloha;kameny okolo"
      }
    },
    {
      "type": "Feature",
      "geometry": {
        "type": "Point",
        "coordinates": [
          17.0361337,
          50.2169991
        ]
      },
      "properties": {
        "@type": "node",
        "@id": 350350986,
        "@url": "https://www.openstreetmap.org/node/350350986",
        "ele": "915",
        "hiking": "yes",
        "information": "guidepost",
        "name": "Černý potok",
        "operator": "cz:KČT",
        "ref": "JE334",
        "ski": "yes",
        "tourism": "information"
      }
    },
    {
      "type": "Feature",
      "geometry": {
        "type": "Point",
        "coordinates": [
          16.3424859,
          50.3482047
        ]
      },
      "properties": {
        "@type": "node",
        "@id": 356607883,
        "@url": "https://www.openstreetmap.org/node/356607883",
        "ele": "904",
        "hiking": "yes",
        "information": "guidepost",
        "name": "Nad Polomem (vých. rozc.)",
        "operator": "cz:KČT",
        "ref": "RK060",
        "tourism": "information"
      }
    },
    {
      "type": "Feature",
      "geometry": {
        "type": "Point",
        "coordinates": [
          13.2238343,
          49.1699331
        ]
      },
      "properties": {
        "@type": "node",
        "@id": 389781610,
        "@url": "https://www.openstreetmap.org/node/389781610",
        "ele": "937",
        "hiking": "yes",
        "information": "guidepost",
        "name": "Špičák (pod Rixi)",
        "operator": "cz:KČT",
        "ref": "KT039",
        "ski": "yes",
        "source": "survey",
        "tourism": "information"
      }
    },
    {
      "type": "Feature",
      "geometry": {
        "type": "Point",
        "coordinates": [
          13.158564,
          50.4903508
        ]
      },
      "properties": {
        "@type": "node",
        "@id": 389905283,
        "@url": "https://www.openstreetmap.org/node/389905283",
        "ele": "993.7",
        "name": "Jelení hora",
        "name:cs": "Jelení hora",
        "name:de": "Hassberg",
        "natural": "peak",
        "summit:cross": "yes",
        "wikidata": "Q1686686",
        "wikipedia": "cs:Jelení hora (Krušné hory)"
      }
    },
    {
      "type": "Feature",
      "geometry": {
        "type": "Point",
        "coordinates": [
          14.4196826,
          48.7539148
        ]
      },
      "properties": {
        "@type": "node",
        "@id": 390006865,
        "@url": "https://www.openstreetmap.org/node/390006865",
        "ele": "920",
        "name": "Poluška",
        "natural": "peak",
        "source": "ČÚZK",
        "wikidata": "Q15906177",
        "wikipedia": "cs:Poluška"
      }
    },
    {
      "type": "Feature",
      "geometry": {
        "type": "Point",
        "coordinates": [
          14.2632315,
          48.6324623
        ]
      },
      "properties": {
        "@type": "node",
        "@id": 416326300,
        "@url": "https://www.openstreetmap.org/node/416326300",
        "ele": "933",
        "name": "Luč",
        "name:de": "Kienberg",
        "natural": "peak",
        "wikidata": "Q30635886",
        "wikipedia": "cs:Luč (Šumava)"
      }
    },
    {
      "type": "Feature",
      "geometry": {
        "type": "Point",
        "coordinates": [
          13.428267,
          50.5821709
        ]
      },
      "properties": {
        "@type": "node",
        "@id": 417226171,
        "@url": "https://www.openstreetmap.org/node/417226171",
        "ele": "910",
        "name": "Eduardova skála",
        "name:de": "Eduardstein",
        "natural": "peak"
      }
    },
    {
      "type": "Feature",
      "geometry": {
        "type": "Point",
        "coordinates": [
          13.6103415,
          50.6486112
        ]
      },
      "properties": {
        "@type": "node",
        "@id": 437558258,
        "@url": "https://www.openstreetmap.org/node/437558258",
        "ele": "956.0",
        "name": "Loučná",
        "name:cs": "Loučná",
        "name:de": "Wieselstein",
        "natural": "peak",
        "wikidata": "Q1585073",
        "wikipedia": "cs:Loučná (Krušné hory, 956 m)"
      }
    },
    {
      "type": "Feature",
      "geometry": {
        "type": "Point",
        "coordinates": [
          12.6352917,
          50.4139236
        ]
      },
      "properties": {
        "@type": "node",
        "@id": 440867070,
        "@url": "https://www.openstreetmap.org/node/440867070",
        "ele": "920"
      }
    },
    {
      "type": "Feature",
      "geometry": {
        "type": "Point",
        "coordinates": [
          18.3981482,
          49.3568198
        ]
      },
      "properties": {
        "@type": "node",
        "@id": 442581692,
        "@url": "https://www.openstreetmap.org/node/442581692",
        "ele": "950",
        "hiking": "yes",
        "information": "guidepost",
        "name": "Lemešná",
        "operator": "cz:KČT",
        "ref": "none",
        "tourism": "information"
      }
    },
    {
      "type": "Feature",
      "geometry": {
        "type": "Point",
        "coordinates": [
          15.6700321,
          50.685297
        ]
      },
      "properties": {
        "@type": "node",
        "@id": 455897326,
        "@url": "https://www.openstreetmap.org/node/455897326",
        "ele": "944",
        "name": "Kotel",
        "natural": "peak",
        "source": "ČÚZK"
      }
    },
    {
      "type": "Feature",
      "geometry": {
        "type": "Point",
        "coordinates": [
          15.608685,
          50.6770121
        ]
      },
      "properties": {
        "@type": "node",
        "@id": 455897625,
        "@url": "https://www.openstreetmap.org/node/455897625",
        "ele": "958.3",
        "name": "Herlíkovický Žalý",
        "name:de": "Altenberg",
        "natural": "peak"
      }
    },
    {
      "type": "Feature",
      "geometry": {
        "type": "Point",
        "coordinates": [
          15.7240438,
          50.7164587
        ]
      },
      "properties": {
        "@type": "node",
        "@id": 459849306,
        "@url": "https://www.openstreetmap.org/node/459849306",
        "ele": "915",
        "hiking": "yes",
        "information": "guidepost",
        "name": "Obří důl (rozcestí)",
        "official_name": "Obří důl (rozc.)",
        "operator": "cz:KČT",
        "ref": "TU319",
        "tourism": "information"
      }
    },
    {
      "type": "Feature",
      "geometry": {
        "type": "Point",
        "coordinates": [
          15.7368567,
          50.7046984
        ]
      },
      "properties": {
        "@type": "node",
        "@id": 459849340,
        "@url": "https://www.openstreetmap.org/node/459849340",
        "ele": "920",
        "hiking": "yes",
        "information": "guidepost",
        "name": "Pod Větrníkem",
        "operator": "cz:KČT",
        "ref": "TU495",
        "source": "gps",
        "tourism": "information"
      }
    },
    {
      "type": "Feature",
      "geometry": {
        "type": "Point",
        "coordinates": [
          15.7163007,
          50.7108705
        ]
      },
      "properties": {
        "@type": "node",
        "@id": 460744584,
        "@url": "https://www.openstreetmap.org/node/460744584",
        "ele": "980",
        "hiking": "yes",
        "information": "guidepost",
        "name": "Modrý důl (rozcestí)",
        "official_name": "Modrý důl (rozc.)",
        "operator": "cz:KČT",
        "ref": "TU150",
        "source": "gps",
        "tourism": "information"
      }
    },
    {
      "type": "Feature",
      "geometry": {
        "type": "Point",
        "coordinates": [
          12.7749038,
          50.4295899
        ]
      },
      "properties": {
        "@type": "node",
        "@id": 553433049,
        "@url": "https://www.openstreetmap.org/node/553433049",
        "ele": "962",
        "name": "Písková skála",
        "name:de": "Sandfelsberg",
        "natural": "peak",
        "source": "ČÚZK"
      }
    },
    {
      "type": "Feature",
      "geometry": {
        "type": "Point",
        "coordinates": [
          12.6948148,
          50.4023439
        ]
      },
      "properties": {
        "@type": "node",
        "@id": 555155112,
        "@url": "https://www.openstreetmap.org/node/555155112",
        "ele": "982",
        "name": "Korec",
        "name:cs": "Korec",
        "name:de": "Scheffelsberg",
        "natural": "peak",
        "source": "ČÚZK",
        "wikidata": "Q2232399"
      }
    },
    {
      "type": "Feature",
      "geometry": {
        "type": "Point",
        "coordinates": [
          15.4845812,
          50.7497303
        ]
      },
      "properties": {
        "@type": "node",
        "@id": 565517408,
        "@url": "https://www.openstreetmap.org/node/565517408",
        "ele": "980",
        "name": "Ručičky",
        "name:cs": "Ručičky",
        "place": "locality"
      }
    },
    {
      "type": "Feature",
      "geometry": {
        "type": "Point",
        "coordinates": [
          15.3660199,
          50.7465174
        ]
      },
      "properties": {
        "@type": "node",
        "@id": 565554800,
        "@url": "https://www.openstreetmap.org/node/565554800",
        "alt_name:de": "Stephanshöhe",
        "ele": "958.87",
        "name": "Hvězda",
        "name:de": "Buchenstein",
        "natural": "peak",
        "source": "cs.wikipedia.org"
      }
    },
    {
      "type": "Feature",
      "geometry": {
        "type": "Point",
        "coordinates": [
          15.565638,
          50.6792985
        ]
      },
      "properties": {
        "@type": "node",
        "@id": 565692357,
        "@url": "https://www.openstreetmap.org/node/565692357",
        "ele": "924.9",
        "name": "Jánský vrch",
        "name:cs": "Jánský vrch",
        "name:de": "Johannes Berg",
        "natural": "peak",
        "source": "ČÚZK",
        "wikidata": "Q12027528",
        "wikipedia": "cs:Jánský vrch (Krkonoše)"
      }
    },
    {
      "type": "Feature",
      "geometry": {
        "type": "Point",
        "coordinates": [
          15.5350479,
          50.7210249
        ]
      },
      "properties": {
        "@type": "node",
        "@id": 565692361,
        "@url": "https://www.openstreetmap.org/node/565692361",
        "ele": "968",
        "name": "Vídeňská skála",
        "natural": "peak",
        "source": "ČÚZK"
      }
    },
    {
      "type": "Feature",
      "geometry": {
        "type": "Point",
        "coordinates": [
          15.3918368,
          50.7516161
        ]
      },
      "properties": {
        "@type": "node",
        "@id": 566158924,
        "@url": "https://www.openstreetmap.org/node/566158924",
        "ele": "910",
        "name": "Kapradník",
        "name:de": "Parm Berg",
        "natural": "peak",
        "source": "cuzk:km"
      }
    },
    {
      "type": "Feature",
      "geometry": {
        "type": "Point",
        "coordinates": [
          15.3976912,
          50.7421668
        ]
      },
      "properties": {
        "@type": "node",
        "@id": 566162595,
        "@url": "https://www.openstreetmap.org/node/566162595",
        "ele": "917",
        "name": "Hromovka",
        "natural": "peak",
        "source": "ČÚZK"
      }
    },
    {
      "type": "Feature",
      "geometry": {
        "type": "Point",
        "coordinates": [
          14.6490778,
          48.6214682
        ]
      },
      "properties": {
        "@type": "node",
        "@id": 566472274,
        "@url": "https://www.openstreetmap.org/node/566472274",
        "ele": "911.47"
      }
    },
    {
      "type": "Feature",
      "geometry": {
        "type": "Point",
        "coordinates": [
          14.6485456,
          48.6212185
        ]
      },
      "properties": {
        "@type": "node",
        "@id": 566472276,
        "@url": "https://www.openstreetmap.org/node/566472276",
        "ele": "911.47"
      }
    },
    {
      "type": "Feature",
      "geometry": {
        "type": "Point",
        "coordinates": [
          14.6483053,
          48.6211708
        ]
      },
      "properties": {
        "@type": "node",
        "@id": 566472277,
        "@url": "https://www.openstreetmap.org/node/566472277",
        "ele": "914.35"
      }
    },
    {
      "type": "Feature",
      "geometry": {
        "type": "Point",
        "coordinates": [
          14.6479706,
          48.62081
        ]
      },
      "properties": {
        "@type": "node",
        "@id": 566472278,
        "@url": "https://www.openstreetmap.org/node/566472278",
        "ele": "905.22"
      }
    },
    {
      "type": "Feature",
      "geometry": {
        "type": "Point",
        "coordinates": [
          14.6477903,
          48.6205093
        ]
      },
      "properties": {
        "@type": "node",
        "@id": 566472281,
        "@url": "https://www.openstreetmap.org/node/566472281",
        "ele": "909.54"
      }
    },
    {
      "type": "Feature",
      "geometry": {
        "type": "Point",
        "coordinates": [
          14.6480221,
          48.6203278
        ]
      },
      "properties": {
        "@type": "node",
        "@id": 566472282,
        "@url": "https://www.openstreetmap.org/node/566472282",
        "ele": "909.54"
      }
    },
    {
      "type": "Feature",
      "geometry": {
        "type": "Point",
        "coordinates": [
          14.6484426,
          48.620288
        ]
      },
      "properties": {
        "@type": "node",
        "@id": 566472283,
        "@url": "https://www.openstreetmap.org/node/566472283",
        "ele": "910.99"
      }
    },
    {
      "type": "Feature",
      "geometry": {
        "type": "Point",
        "coordinates": [
          14.6486658,
          48.6202994
        ]
      },
      "properties": {
        "@type": "node",
        "@id": 566472284,
        "@url": "https://www.openstreetmap.org/node/566472284",
        "ele": "911.47"
      }
    },
    {
      "type": "Feature",
      "geometry": {
        "type": "Point",
        "coordinates": [
          14.6493181,
          48.6203732
        ]
      },
      "properties": {
        "@type": "node",
        "@id": 566472285,
        "@url": "https://www.openstreetmap.org/node/566472285",
        "ele": "912.91"
      }
    },
    {
      "type": "Feature",
      "geometry": {
        "type": "Point",
        "coordinates": [
          14.6503137,
          48.620481
        ]
      },
      "properties": {
        "@type": "node",
        "@id": 566472287,
        "@url": "https://www.openstreetmap.org/node/566472287",
        "ele": "915.31"
      }
    },
    {
      "type": "Feature",
      "geometry": {
        "type": "Point",
        "coordinates": [
          14.6511206,
          48.6203845
        ]
      },
      "properties": {
        "@type": "node",
        "@id": 566472288,
        "@url": "https://www.openstreetmap.org/node/566472288",
        "ele": "916.75"
      }
    },
    {
      "type": "Feature",
      "geometry": {
        "type": "Point",
        "coordinates": [
          14.6521591,
          48.620254
        ]
      },
      "properties": {
        "@type": "node",
        "@id": 566472291,
        "@url": "https://www.openstreetmap.org/node/566472291",
        "ele": "918.2"
      }
    },
    {
      "type": "Feature",
      "geometry": {
        "type": "Point",
        "coordinates": [
          14.6533865,
          48.6199249
        ]
      },
      "properties": {
        "@type": "node",
        "@id": 566472292,
        "@url": "https://www.openstreetmap.org/node/566472292",
        "ele": "920.6"
      }
    },
    {
      "type": "Feature",
      "geometry": {
        "type": "Point",
        "coordinates": [
          14.6546825,
          48.6193348
        ]
      },
      "properties": {
        "@type": "node",
        "@id": 566472293,
        "@url": "https://www.openstreetmap.org/node/566472293",
        "ele": "924.45"
      }
    },
    {
      "type": "Feature",
      "geometry": {
        "type": "Point",
        "coordinates": [
          14.6553177,
          48.6189717
        ]
      },
      "properties": {
        "@type": "node",
        "@id": 566472294,
        "@url": "https://www.openstreetmap.org/node/566472294",
        "ele": "926.37"
      }
    },
    {
      "type": "Feature",
      "geometry": {
        "type": "Point",
        "coordinates": [
          14.6556438,
          48.6184157
        ]
      },
      "properties": {
        "@type": "node",
        "@id": 566472295,
        "@url": "https://www.openstreetmap.org/node/566472295",
        "ele": "927.81"
      }
    },
    {
      "type": "Feature",
      "geometry": {
        "type": "Point",
        "coordinates": [
          14.6554293,
          48.6180015
        ]
      },
      "properties": {
        "@type": "node",
        "@id": 566472296,
        "@url": "https://www.openstreetmap.org/node/566472296",
        "ele": "929.73"
      }
    },
    {
      "type": "Feature",
      "geometry": {
        "type": "Point",
        "coordinates": [
          14.655661,
          48.6168666
        ]
      },
      "properties": {
        "@type": "node",
        "@id": 566472297,
        "@url": "https://www.openstreetmap.org/node/566472297",
        "ele": "930.69"
      }
    },
    {
      "type": "Feature",
      "geometry": {
        "type": "Point",
        "coordinates": [
          14.6558927,
          48.6162198
        ]
      },
      "properties": {
        "@type": "node",
        "@id": 566472298,
        "@url": "https://www.openstreetmap.org/node/566472298",
        "ele": "933.1"
      }
    },
    {
      "type": "Feature",
      "geometry": {
        "type": "Point",
        "coordinates": [
          14.6562961,
          48.6157658
        ]
      },
      "properties": {
        "@type": "node",
        "@id": 566472299,
        "@url": "https://www.openstreetmap.org/node/566472299",
        "ele": "934.06"
      }
    },
    {
      "type": "Feature",
      "geometry": {
        "type": "Point",
        "coordinates": [
          14.6573519,
          48.6152041
        ]
      },
      "properties": {
        "@type": "node",
        "@id": 566472300,
        "@url": "https://www.openstreetmap.org/node/566472300",
        "ele": "934.06"
      }
    },
    {
      "type": "Feature",
      "geometry": {
        "type": "Point",
        "coordinates": [
          14.657987,
          48.6149374
        ]
      },
      "properties": {
        "@type": "node",
        "@id": 566472301,
        "@url": "https://www.openstreetmap.org/node/566472301",
        "ele": "934.06"
      }
    },
    {
      "type": "Feature",
      "geometry": {
        "type": "Point",
        "coordinates": [
          14.6586393,
          48.6149884
        ]
      },
      "properties": {
        "@type": "node",
        "@id": 566472302,
        "@url": "https://www.openstreetmap.org/node/566472302",
        "ele": "933.1"
      }
    },
    {
      "type": "Feature",
      "geometry": {
        "type": "Point",
        "coordinates": [
          14.6592058,
          48.6152211
        ]
      },
      "properties": {
        "@type": "node",
        "@id": 566472303,
        "@url": "https://www.openstreetmap.org/node/566472303",
        "ele": "933.1"
      }
    },
    {
      "type": "Feature",
      "geometry": {
        "type": "Point",
        "coordinates": [
          14.659841,
          48.6156183
        ]
      },
      "properties": {
        "@type": "node",
        "@id": 566472304,
        "@url": "https://www.openstreetmap.org/node/566472304",
        "ele": "932.14"
      }
    },
    {
      "type": "Feature",
      "geometry": {
        "type": "Point",
        "coordinates": [
          14.6603474,
          48.6156013
        ]
      },
      "properties": {
        "@type": "node",
        "@id": 566472306,
        "@url": "https://www.openstreetmap.org/node/566472306",
        "ele": "932.62"
      }
    },
    {
      "type": "Feature",
      "geometry": {
        "type": "Point",
        "coordinates": [
          14.6609911,
          48.6153913
        ]
      },
      "properties": {
        "@type": "node",
        "@id": 566472307,
        "@url": "https://www.openstreetmap.org/node/566472307",
        "ele": "932.62"
      }
    },
    {
      "type": "Feature",
      "geometry": {
        "type": "Point",
        "coordinates": [
          14.6615833,
          48.6153686
        ]
      },
      "properties": {
        "@type": "node",
        "@id": 566472308,
        "@url": "https://www.openstreetmap.org/node/566472308",
        "ele": "933.1"
      }
    },
    {
      "type": "Feature",
      "geometry": {
        "type": "Point",
        "coordinates": [
          14.6622099,
          48.6152324
        ]
      },
      "properties": {
        "@type": "node",
        "@id": 566472309,
        "@url": "https://www.openstreetmap.org/node/566472309",
        "ele": "929.73"
      }
    },
    {
      "type": "Feature",
      "geometry": {
        "type": "Point",
        "coordinates": [
          14.6624674,
          48.6150906
        ]
      },
      "properties": {
        "@type": "node",
        "@id": 566472310,
        "@url": "https://www.openstreetmap.org/node/566472310",
        "ele": "929.25"
      }
    },
    {
      "type": "Feature",
      "geometry": {
        "type": "Point",
        "coordinates": [
          14.6628364,
          48.6148522
        ]
      },
      "properties": {
        "@type": "node",
        "@id": 566472311,
        "@url": "https://www.openstreetmap.org/node/566472311",
        "ele": "929.25"
      }
    },
    {
      "type": "Feature",
      "geometry": {
        "type": "Point",
        "coordinates": [
          14.6631969,
          48.6147728
        ]
      },
      "properties": {
        "@type": "node",
        "@id": 566472312,
        "@url": "https://www.openstreetmap.org/node/566472312",
        "ele": "928.77"
      }
    },
    {
      "type": "Feature",
      "geometry": {
        "type": "Point",
        "coordinates": [
          14.6639608,
          48.6145515
        ]
      },
      "properties": {
        "@type": "node",
        "@id": 566472313,
        "@url": "https://www.openstreetmap.org/node/566472313",
        "ele": "928.29"
      }
    },
    {
      "type": "Feature",
      "geometry": {
        "type": "Point",
        "coordinates": [
          14.6648706,
          48.6141883
        ]
      },
      "properties": {
        "@type": "node",
        "@id": 566472314,
        "@url": "https://www.openstreetmap.org/node/566472314",
        "ele": "924.93"
      }
    },
    {
      "type": "Feature",
      "geometry": {
        "type": "Point",
        "coordinates": [
          14.6652054,
          48.6139784
        ]
      },
      "properties": {
        "@type": "node",
        "@id": 566472315,
        "@url": "https://www.openstreetmap.org/node/566472315",
        "ele": "923.0"
      }
    },
    {
      "type": "Feature",
      "geometry": {
        "type": "Point",
        "coordinates": [
          14.6654714,
          48.6137854
        ]
      },
      "properties": {
        "@type": "node",
        "@id": 566472317,
        "@url": "https://www.openstreetmap.org/node/566472317",
        "ele": "921.08"
      }
    },
    {
      "type": "Feature",
      "geometry": {
        "type": "Point",
        "coordinates": [
          14.6670164,
          48.6130988
        ]
      },
      "properties": {
        "@type": "node",
        "@id": 566472319,
        "@url": "https://www.openstreetmap.org/node/566472319",
        "ele": "915.31"
      }
    },
    {
      "type": "Feature",
      "geometry": {
        "type": "Point",
        "coordinates": [
          14.6677889,
          48.612974
        ]
      },
      "properties": {
        "@type": "node",
        "@id": 566472320,
        "@url": "https://www.openstreetmap.org/node/566472320",
        "ele": "913.87"
      }
    },
    {
      "type": "Feature",
      "geometry": {
        "type": "Point",
        "coordinates": [
          14.6679262,
          48.6131612
        ]
      },
      "properties": {
        "@type": "node",
        "@id": 566472321,
        "@url": "https://www.openstreetmap.org/node/566472321",
        "ele": "913.39"
      }
    },
    {
      "type": "Feature",
      "geometry": {
        "type": "Point",
        "coordinates": [
          14.6679605,
          48.6132861
        ]
      },
      "properties": {
        "@type": "node",
        "@id": 566472322,
        "@url": "https://www.openstreetmap.org/node/566472322",
        "ele": "913.39"
      }
    },
    {
      "type": "Feature",
      "geometry": {
        "type": "Point",
        "coordinates": [
          14.6682781,
          48.6135358
        ]
      },
      "properties": {
        "@type": "node",
        "@id": 566472323,
        "@url": "https://www.openstreetmap.org/node/566472323",
        "ele": "910.51"
      }
    },
    {
      "type": "Feature",
      "geometry": {
        "type": "Point",
        "coordinates": [
          14.6684669,
          48.6136039
        ]
      },
      "properties": {
        "@type": "node",
        "@id": 566472324,
        "@url": "https://www.openstreetmap.org/node/566472324",
        "ele": "910.03"
      }
    },
    {
      "type": "Feature",
      "geometry": {
        "type": "Point",
        "coordinates": [
          14.6692308,
          48.6138365
        ]
      },
      "properties": {
        "@type": "node",
        "@id": 566472325,
        "@url": "https://www.openstreetmap.org/node/566472325",
        "ele": "906.18"
      }
    },
    {
      "type": "Feature",
      "geometry": {
        "type": "Point",
        "coordinates": [
          14.669969,
          48.6139954
        ]
      },
      "properties": {
        "@type": "node",
        "@id": 566472326,
        "@url": "https://www.openstreetmap.org/node/566472326",
        "ele": "903.3"
      }
    },
    {
      "type": "Feature",
      "geometry": {
        "type": "Point",
        "coordinates": [
          14.6910852,
          48.631734
        ]
      },
      "properties": {
        "@type": "node",
        "@id": 566560656,
        "@url": "https://www.openstreetmap.org/node/566560656",
        "ele": "995.1"
      }
    },
    {
      "type": "Feature",
      "geometry": {
        "type": "Point",
        "coordinates": [
          14.690441999999999,
          48.6313455
        ]
      },
      "properties": {
        "@type": "node",
        "@id": 566560658,
        "@url": "https://www.openstreetmap.org/node/566560658",
        "ele": "996.06"
      }
    },
    {
      "type": "Feature",
      "geometry": {
        "type": "Point",
        "coordinates": [
          14.6902765,
          48.6312033
        ]
      },
      "properties": {
        "@type": "node",
        "@id": 566560659,
        "@url": "https://www.openstreetmap.org/node/566560659",
        "ele": "996.54"
      }
    },
    {
      "type": "Feature",
      "geometry": {
        "type": "Point",
        "coordinates": [
          14.6897272,
          48.6309083
        ]
      },
      "properties": {
        "@type": "node",
        "@id": 566560660,
        "@url": "https://www.openstreetmap.org/node/566560660",
        "ele": "999.43"
      }
    },
    {
      "type": "Feature",
      "geometry": {
        "type": "Point",
        "coordinates": [
          14.6913019,
          48.6318106
        ]
      },
      "properties": {
        "@type": "node",
        "@id": 566562502,
        "@url": "https://www.openstreetmap.org/node/566562502",
        "ele": "993.18"
      }
    },
    {
      "type": "Feature",
      "geometry": {
        "type": "Point",
        "coordinates": [
          14.6929692,
          48.6322037
        ]
      },
      "properties": {
        "@type": "node",
        "@id": 566562504,
        "@url": "https://www.openstreetmap.org/node/566562504",
        "ele": "994.14"
      }
    },
    {
      "type": "Feature",
      "geometry": {
        "type": "Point",
        "coordinates": [
          14.6930544,
          48.6322459
        ]
      },
      "properties": {
        "@type": "node",
        "@id": 566562505,
        "@url": "https://www.openstreetmap.org/node/566562505",
        "ele": "994.62"
      }
    },
    {
      "type": "Feature",
      "geometry": {
        "type": "Point",
        "coordinates": [
          14.694129,
          48.6329653
        ]
      },
      "properties": {
        "@type": "node",
        "@id": 566562508,
        "@url": "https://www.openstreetmap.org/node/566562508",
        "ele": "989.81"
      }
    },
    {
      "type": "Feature",
      "geometry": {
        "type": "Point",
        "coordinates": [
          14.6943684,
          48.6331744
        ]
      },
      "properties": {
        "@type": "node",
        "@id": 566562509,
        "@url": "https://www.openstreetmap.org/node/566562509",
        "ele": "987.89"
      }
    },
    {
      "type": "Feature",
      "geometry": {
        "type": "Point",
        "coordinates": [
          14.6945669,
          48.6334411
        ]
      },
      "properties": {
        "@type": "node",
        "@id": 566562510,
        "@url": "https://www.openstreetmap.org/node/566562510",
        "ele": "983.57"
      }
    },
    {
      "type": "Feature",
      "geometry": {
        "type": "Point",
        "coordinates": [
          14.6947431,
          48.6336778
        ]
      },
      "properties": {
        "@type": "node",
        "@id": 566562520,
        "@url": "https://www.openstreetmap.org/node/566562520",
        "ele": "980.68"
      }
    },
    {
      "type": "Feature",
      "geometry": {
        "type": "Point",
        "coordinates": [
          14.6948624,
          48.6339041
        ]
      },
      "properties": {
        "@type": "node",
        "@id": 566562525,
        "@url": "https://www.openstreetmap.org/node/566562525",
        "ele": "977.32"
      }
    },
    {
      "type": "Feature",
      "geometry": {
        "type": "Point",
        "coordinates": [
          14.6948929,
          48.6339769
        ]
      },
      "properties": {
        "@type": "node",
        "@id": 566562531,
        "@url": "https://www.openstreetmap.org/node/566562531",
        "ele": "975.88"
      }
    },
    {
      "type": "Feature",
      "geometry": {
        "type": "Point",
        "coordinates": [
          14.6948976,
          48.6342861
        ]
      },
      "properties": {
        "@type": "node",
        "@id": 566562537,
        "@url": "https://www.openstreetmap.org/node/566562537",
        "ele": "971.07"
      }
    },
    {
      "type": "Feature",
      "geometry": {
        "type": "Point",
        "coordinates": [
          14.6947465,
          48.6345395
        ]
      },
      "properties": {
        "@type": "node",
        "@id": 566562542,
        "@url": "https://www.openstreetmap.org/node/566562542",
        "ele": "965.78"
      }
    },
    {
      "type": "Feature",
      "geometry": {
        "type": "Point",
        "coordinates": [
          14.6946891,
          48.6346222
        ]
      },
      "properties": {
        "@type": "node",
        "@id": 566562543,
        "@url": "https://www.openstreetmap.org/node/566562543",
        "ele": "965.78"
      }
    },
    {
      "type": "Feature",
      "geometry": {
        "type": "Point",
        "coordinates": [
          14.6945459,
          48.634771
        ]
      },
      "properties": {
        "@type": "node",
        "@id": 566562548,
        "@url": "https://www.openstreetmap.org/node/566562548",
        "ele": "962.9"
      }
    },
    {
      "type": "Feature",
      "geometry": {
        "type": "Point",
        "coordinates": [
          14.6942863,
          48.6349647
        ]
      },
      "properties": {
        "@type": "node",
        "@id": 566562554,
        "@url": "https://www.openstreetmap.org/node/566562554",
        "ele": "959.53"
      }
    },
    {
      "type": "Feature",
      "geometry": {
        "type": "Point",
        "coordinates": [
          14.6925717,
          48.63564
        ]
      },
      "properties": {
        "@type": "node",
        "@id": 566562587,
        "@url": "https://www.openstreetmap.org/node/566562587",
        "ele": "942.71"
      }
    },
    {
      "type": "Feature",
      "geometry": {
        "type": "Point",
        "coordinates": [
          14.6924713,
          48.6356849
        ]
      },
      "properties": {
        "@type": "node",
        "@id": 566562592,
        "@url": "https://www.openstreetmap.org/node/566562592",
        "ele": "942.23"
      }
    },
    {
      "type": "Feature",
      "geometry": {
        "type": "Point",
        "coordinates": [
          14.6920968,
          48.6358522
        ]
      },
      "properties": {
        "@type": "node",
        "@id": 566562598,
        "@url": "https://www.openstreetmap.org/node/566562598",
        "ele": "939.35"
      }
    },
    {
      "type": "Feature",
      "geometry": {
        "type": "Point",
        "coordinates": [
          14.6919512,
          48.6359293
        ]
      },
      "properties": {
        "@type": "node",
        "@id": 566562601,
        "@url": "https://www.openstreetmap.org/node/566562601",
        "ele": "937.9"
      }
    },
    {
      "type": "Feature",
      "geometry": {
        "type": "Point",
        "coordinates": [
          14.691894,
          48.6362497
        ]
      },
      "properties": {
        "@type": "node",
        "@id": 566562602,
        "@url": "https://www.openstreetmap.org/node/566562602",
        "ele": "934.54"
      }
    },
    {
      "type": "Feature",
      "geometry": {
        "type": "Point",
        "coordinates": [
          14.6919459,
          48.636413
        ]
      },
      "properties": {
        "@type": "node",
        "@id": 566562603,
        "@url": "https://www.openstreetmap.org/node/566562603",
        "ele": "933.58"
      }
    },
    {
      "type": "Feature",
      "geometry": {
        "type": "Point",
        "coordinates": [
          14.6920767,
          48.6368265
        ]
      },
      "properties": {
        "@type": "node",
        "@id": 566562604,
        "@url": "https://www.openstreetmap.org/node/566562604",
        "ele": "930.21"
      }
    },
    {
      "type": "Feature",
      "geometry": {
        "type": "Point",
        "coordinates": [
          14.6919067,
          48.6374824
        ]
      },
      "properties": {
        "@type": "node",
        "@id": 566562605,
        "@url": "https://www.openstreetmap.org/node/566562605",
        "ele": "929.73"
      }
    },
    {
      "type": "Feature",
      "geometry": {
        "type": "Point",
        "coordinates": [
          14.6919259,
          48.6377764
        ]
      },
      "properties": {
        "@type": "node",
        "@id": 566562606,
        "@url": "https://www.openstreetmap.org/node/566562606",
        "ele": "928.77"
      }
    },
    {
      "type": "Feature",
      "geometry": {
        "type": "Point",
        "coordinates": [
          14.6919711,
          48.638123
        ]
      },
      "properties": {
        "@type": "node",
        "@id": 566562607,
        "@url": "https://www.openstreetmap.org/node/566562607",
        "ele": "926.85"
      }
    },
    {
      "type": "Feature",
      "geometry": {
        "type": "Point",
        "coordinates": [
          14.6919516,
          48.6382174
        ]
      },
      "properties": {
        "@type": "node",
        "@id": 566562608,
        "@url": "https://www.openstreetmap.org/node/566562608",
        "ele": "926.85"
      }
    },
    {
      "type": "Feature",
      "geometry": {
        "type": "Point",
        "coordinates": [
          14.6917676,
          48.6386869
        ]
      },
      "properties": {
        "@type": "node",
        "@id": 566562609,
        "@url": "https://www.openstreetmap.org/node/566562609",
        "ele": "924.93"
      }
    },
    {
      "type": "Feature",
      "geometry": {
        "type": "Point",
        "coordinates": [
          14.6917531,
          48.6387623
        ]
      },
      "properties": {
        "@type": "node",
        "@id": 566562610,
        "@url": "https://www.openstreetmap.org/node/566562610",
        "ele": "923.96"
      }
    },
    {
      "type": "Feature",
      "geometry": {
        "type": "Point",
        "coordinates": [
          14.691752,
          48.6389385
        ]
      },
      "properties": {
        "@type": "node",
        "@id": 566562611,
        "@url": "https://www.openstreetmap.org/node/566562611",
        "ele": "922.52"
      }
    },
    {
      "type": "Feature",
      "geometry": {
        "type": "Point",
        "coordinates": [
          14.6918428,
          48.6390631
        ]
      },
      "properties": {
        "@type": "node",
        "@id": 566562612,
        "@url": "https://www.openstreetmap.org/node/566562612",
        "ele": "921.08"
      }
    },
    {
      "type": "Feature",
      "geometry": {
        "type": "Point",
        "coordinates": [
          14.6921832,
          48.6392792
        ]
      },
      "properties": {
        "@type": "node",
        "@id": 566562613,
        "@url": "https://www.openstreetmap.org/node/566562613",
        "ele": "917.72"
      }
    },
    {
      "type": "Feature",
      "geometry": {
        "type": "Point",
        "coordinates": [
          14.692317,
          48.6393502
        ]
      },
      "properties": {
        "@type": "node",
        "@id": 566562614,
        "@url": "https://www.openstreetmap.org/node/566562614",
        "ele": "915.79"
      }
    },
    {
      "type": "Feature",
      "geometry": {
        "type": "Point",
        "coordinates": [
          14.6924609,
          48.6394475
        ]
      },
      "properties": {
        "@type": "node",
        "@id": 566562615,
        "@url": "https://www.openstreetmap.org/node/566562615",
        "ele": "914.35"
      }
    },
    {
      "type": "Feature",
      "geometry": {
        "type": "Point",
        "coordinates": [
          14.6924947,
          48.6394704
        ]
      },
      "properties": {
        "@type": "node",
        "@id": 566562616,
        "@url": "https://www.openstreetmap.org/node/566562616",
        "ele": "914.35"
      }
    },
    {
      "type": "Feature",
      "geometry": {
        "type": "Point",
        "coordinates": [
          14.6927183,
          48.6395645
        ]
      },
      "properties": {
        "@type": "node",
        "@id": 566562617,
        "@url": "https://www.openstreetmap.org/node/566562617",
        "ele": "912.91"
      }
    },
    {
      "type": "Feature",
      "geometry": {
        "type": "Point",
        "coordinates": [
          14.6928837,
          48.6396621
        ]
      },
      "properties": {
        "@type": "node",
        "@id": 566562618,
        "@url": "https://www.openstreetmap.org/node/566562618",
        "ele": "911.95"
      }
    },
    {
      "type": "Feature",
      "geometry": {
        "type": "Point",
        "coordinates": [
          14.6934678,
          48.640076
        ]
      },
      "properties": {
        "@type": "node",
        "@id": 566562620,
        "@url": "https://www.openstreetmap.org/node/566562620",
        "ele": "909.06"
      }
    },
    {
      "type": "Feature",
      "geometry": {
        "type": "Point",
        "coordinates": [
          14.6936931,
          48.6402537
        ]
      },
      "properties": {
        "@type": "node",
        "@id": 566562621,
        "@url": "https://www.openstreetmap.org/node/566562621",
        "ele": "907.62"
      }
    },
    {
      "type": "Feature",
      "geometry": {
        "type": "Point",
        "coordinates": [
          14.694007,
          48.6404123
        ]
      },
      "properties": {
        "@type": "node",
        "@id": 566562622,
        "@url": "https://www.openstreetmap.org/node/566562622",
        "ele": "906.18"
      }
    },
    {
      "type": "Feature",
      "geometry": {
        "type": "Point",
        "coordinates": [
          14.6944851,
          48.6404923
        ]
      },
      "properties": {
        "@type": "node",
        "@id": 566562623,
        "@url": "https://www.openstreetmap.org/node/566562623",
        "ele": "904.26"
      }
    },
    {
      "type": "Feature",
      "geometry": {
        "type": "Point",
        "coordinates": [
          15.3635313,
          50.7439793
        ]
      },
      "properties": {
        "@type": "node",
        "@id": 567112868,
        "@url": "https://www.openstreetmap.org/node/567112868",
        "bicycle": "yes",
        "ele": "934",
        "hiking": "yes",
        "information": "guidepost",
        "name": "Hvězda (tur. chata)",
        "operator": "cz:KČT",
        "ref": "LB539",
        "source": "cuzk:km",
        "tourism": "information"
      }
    },
    {
      "type": "Feature",
      "geometry": {
        "type": "Point",
        "coordinates": [
          13.4020337,
          49.1146562
        ]
      },
      "properties": {
        "@type": "node",
        "@id": 568307343,
        "@url": "https://www.openstreetmap.org/node/568307343",
        "ele": "995",
        "name": "Slunečná",
        "name:cs": "Slunečná",
        "name:de": "Sonnberg",
        "natural": "peak",
        "source": "cuzk:km",
        "wikidata": "Q109657578"
      }
    },
    {
      "type": "Feature",
      "geometry": {
        "type": "Point",
        "coordinates": [
          14.6742082,
          48.6276529
        ]
      },
      "properties": {
        "@type": "node",
        "@id": 575749051,
        "@url": "https://www.openstreetmap.org/node/575749051",
        "ele": "900.89"
      }
    },
    {
      "type": "Feature",
      "geometry": {
        "type": "Point",
        "coordinates": [
          14.6755669,
          48.6267659
        ]
      },
      "properties": {
        "@type": "node",
        "@id": 575749054,
        "@url": "https://www.openstreetmap.org/node/575749054",
        "ele": "906.18"
      }
    },
    {
      "type": "Feature",
      "geometry": {
        "type": "Point",
        "coordinates": [
          14.6762054,
          48.6264208
        ]
      },
      "properties": {
        "@type": "node",
        "@id": 575749060,
        "@url": "https://www.openstreetmap.org/node/575749060",
        "ele": "908.1"
      }
    },
    {
      "type": "Feature",
      "geometry": {
        "type": "Point",
        "coordinates": [
          14.6778422,
          48.6255676
        ]
      },
      "properties": {
        "@type": "node",
        "@id": 575749063,
        "@url": "https://www.openstreetmap.org/node/575749063",
        "ele": "912.91"
      }
    },
    {
      "type": "Feature",
      "geometry": {
        "type": "Point",
        "coordinates": [
          14.6793029,
          48.6245922
        ]
      },
      "properties": {
        "@type": "node",
        "@id": 575749064,
        "@url": "https://www.openstreetmap.org/node/575749064",
        "ele": "916.75"
      }
    },
    {
      "type": "Feature",
      "geometry": {
        "type": "Point",
        "coordinates": [
          14.6802714,
          48.6237086
        ]
      },
      "properties": {
        "@type": "node",
        "@id": 575749066,
        "@url": "https://www.openstreetmap.org/node/575749066",
        "ele": "918.68"
      }
    },
    {
      "type": "Feature",
      "geometry": {
        "type": "Point",
        "coordinates": [
          14.6810704,
          48.6225551
        ]
      },
      "properties": {
        "@type": "node",
        "@id": 575749069,
        "@url": "https://www.openstreetmap.org/node/575749069",
        "ele": "922.04"
      }
    },
    {
      "type": "Feature",
      "geometry": {
        "type": "Point",
        "coordinates": [
          14.6810616,
          48.6222955
        ]
      },
      "properties": {
        "@type": "node",
        "@id": 575749072,
        "@url": "https://www.openstreetmap.org/node/575749072",
        "ele": "922.52"
      }
    },
    {
      "type": "Feature",
      "geometry": {
        "type": "Point",
        "coordinates": [
          14.6810347,
          48.6221882
        ]
      },
      "properties": {
        "@type": "node",
        "@id": 575749075,
        "@url": "https://www.openstreetmap.org/node/575749075",
        "ele": "922.52"
      }
    },
    {
      "type": "Feature",
      "geometry": {
        "type": "Point",
        "coordinates": [
          14.6809485,
          48.6219812
        ]
      },
      "properties": {
        "@type": "node",
        "@id": 575749078,
        "@url": "https://www.openstreetmap.org/node/575749078",
        "ele": "923.0"
      }
    },
    {
      "type": "Feature",
      "geometry": {
        "type": "Point",
        "coordinates": [
          14.6802613,
          48.6212984
        ]
      },
      "properties": {
        "@type": "node",
        "@id": 575749081,
        "@url": "https://www.openstreetmap.org/node/575749081",
        "ele": "924.45"
      }
    },
    {
      "type": "Feature",
      "geometry": {
        "type": "Point",
        "coordinates": [
          14.6801505,
          48.6210784
        ]
      },
      "properties": {
        "@type": "node",
        "@id": 575749084,
        "@url": "https://www.openstreetmap.org/node/575749084",
        "ele": "924.45"
      }
    },
    {
      "type": "Feature",
      "geometry": {
        "type": "Point",
        "coordinates": [
          14.6801746,
          48.6209482
        ]
      },
      "properties": {
        "@type": "node",
        "@id": 575749086,
        "@url": "https://www.openstreetmap.org/node/575749086",
        "ele": "925.41"
      }
    },
    {
      "type": "Feature",
      "geometry": {
        "type": "Point",
        "coordinates": [
          14.6805765,
          48.620581
        ]
      },
      "properties": {
        "@type": "node",
        "@id": 575749087,
        "@url": "https://www.openstreetmap.org/node/575749087",
        "ele": "925.89"
      }
    },
    {
      "type": "Feature",
      "geometry": {
        "type": "Point",
        "coordinates": [
          14.6813575,
          48.6202786
        ]
      },
      "properties": {
        "@type": "node",
        "@id": 575749093,
        "@url": "https://www.openstreetmap.org/node/575749093",
        "ele": "926.85"
      }
    },
    {
      "type": "Feature",
      "geometry": {
        "type": "Point",
        "coordinates": [
          14.6817421,
          48.6200605
        ]
      },
      "properties": {
        "@type": "node",
        "@id": 575749101,
        "@url": "https://www.openstreetmap.org/node/575749101",
        "ele": "927.81"
      }
    },
    {
      "type": "Feature",
      "geometry": {
        "type": "Point",
        "coordinates": [
          14.6823171,
          48.6197729
        ]
      },
      "properties": {
        "@type": "node",
        "@id": 575749104,
        "@url": "https://www.openstreetmap.org/node/575749104",
        "ele": "928.29"
      }
    },
    {
      "type": "Feature",
      "geometry": {
        "type": "Point",
        "coordinates": [
          14.6830052,
          48.6192932
        ]
      },
      "properties": {
        "@type": "node",
        "@id": 575749114,
        "@url": "https://www.openstreetmap.org/node/575749114",
        "ele": "929.73"
      }
    },
    {
      "type": "Feature",
      "geometry": {
        "type": "Point",
        "coordinates": [
          14.6832031,
          48.6191675
        ]
      },
      "properties": {
        "@type": "node",
        "@id": 575749121,
        "@url": "https://www.openstreetmap.org/node/575749121",
        "ele": "929.73"
      }
    },
    {
      "type": "Feature",
      "geometry": {
        "type": "Point",
        "coordinates": [
          14.6836587,
          48.6189206
        ]
      },
      "properties": {
        "@type": "node",
        "@id": 575749130,
        "@url": "https://www.openstreetmap.org/node/575749130",
        "ele": "930.21"
      }
    },
    {
      "type": "Feature",
      "geometry": {
        "type": "Point",
        "coordinates": [
          14.6846919,
          48.618412
        ]
      },
      "properties": {
        "@type": "node",
        "@id": 575749148,
        "@url": "https://www.openstreetmap.org/node/575749148",
        "ele": "929.25"
      }
    },
    {
      "type": "Feature",
      "geometry": {
        "type": "Point",
        "coordinates": [
          14.684986,
          48.6182403
        ]
      },
      "properties": {
        "@type": "node",
        "@id": 575749157,
        "@url": "https://www.openstreetmap.org/node/575749157",
        "ele": "929.73"
      }
    },
    {
      "type": "Feature",
      "geometry": {
        "type": "Point",
        "coordinates": [
          14.6855282,
          48.6177833
        ]
      },
      "properties": {
        "@type": "node",
        "@id": 575749165,
        "@url": "https://www.openstreetmap.org/node/575749165",
        "ele": "927.81"
      }
    },
    {
      "type": "Feature",
      "geometry": {
        "type": "Point",
        "coordinates": [
          14.6862602,
          48.6169261
        ]
      },
      "properties": {
        "@type": "node",
        "@id": 575749172,
        "@url": "https://www.openstreetmap.org/node/575749172",
        "ele": "926.37"
      }
    },
    {
      "type": "Feature",
      "geometry": {
        "type": "Point",
        "coordinates": [
          14.6867675,
          48.6163741
        ]
      },
      "properties": {
        "@type": "node",
        "@id": 575749175,
        "@url": "https://www.openstreetmap.org/node/575749175",
        "ele": "924.45"
      }
    },
    {
      "type": "Feature",
      "geometry": {
        "type": "Point",
        "coordinates": [
          14.6869966,
          48.6162734
        ]
      },
      "properties": {
        "@type": "node",
        "@id": 575749181,
        "@url": "https://www.openstreetmap.org/node/575749181",
        "ele": "923.96"
      }
    },
    {
      "type": "Feature",
      "geometry": {
        "type": "Point",
        "coordinates": [
          14.687675,
          48.6159327
        ]
      },
      "properties": {
        "@type": "node",
        "@id": 575749185,
        "@url": "https://www.openstreetmap.org/node/575749185",
        "ele": "921.56"
      }
    },
    {
      "type": "Feature",
      "geometry": {
        "type": "Point",
        "coordinates": [
          14.6873202,
          48.6156118
        ]
      },
      "properties": {
        "@type": "node",
        "@id": 575749186,
        "@url": "https://www.openstreetmap.org/node/575749186",
        "ele": "919.64"
      }
    },
    {
      "type": "Feature",
      "geometry": {
        "type": "Point",
        "coordinates": [
          14.6868745,
          48.6152107
        ]
      },
      "properties": {
        "@type": "node",
        "@id": 575749192,
        "@url": "https://www.openstreetmap.org/node/575749192",
        "ele": "917.24"
      }
    },
    {
      "type": "Feature",
      "geometry": {
        "type": "Point",
        "coordinates": [
          14.6860173,
          48.6143169
        ]
      },
      "properties": {
        "@type": "node",
        "@id": 575749209,
        "@url": "https://www.openstreetmap.org/node/575749209",
        "ele": "912.91"
      }
    },
    {
      "type": "Feature",
      "geometry": {
        "type": "Point",
        "coordinates": [
          14.6857087,
          48.6140855
        ]
      },
      "properties": {
        "@type": "node",
        "@id": 575749217,
        "@url": "https://www.openstreetmap.org/node/575749217",
        "ele": "911.47"
      }
    },
    {
      "type": "Feature",
      "geometry": {
        "type": "Point",
        "coordinates": [
          14.6855169,
          48.6139994
        ]
      },
      "properties": {
        "@type": "node",
        "@id": 575749225,
        "@url": "https://www.openstreetmap.org/node/575749225",
        "ele": "910.99"
      }
    },
    {
      "type": "Feature",
      "geometry": {
        "type": "Point",
        "coordinates": [
          14.6848338,
          48.613903
        ]
      },
      "properties": {
        "@type": "node",
        "@id": 575749231,
        "@url": "https://www.openstreetmap.org/node/575749231",
        "ele": "908.58"
      }
    },
    {
      "type": "Feature",
      "geometry": {
        "type": "Point",
        "coordinates": [
          14.6844686,
          48.6139418
        ]
      },
      "properties": {
        "@type": "node",
        "@id": 575749238,
        "@url": "https://www.openstreetmap.org/node/575749238",
        "ele": "907.14"
      }
    },
    {
      "type": "Feature",
      "geometry": {
        "type": "Point",
        "coordinates": [
          14.6842719,
          48.61393
        ]
      },
      "properties": {
        "@type": "node",
        "@id": 575749246,
        "@url": "https://www.openstreetmap.org/node/575749246",
        "ele": "906.66"
      }
    },
    {
      "type": "Feature",
      "geometry": {
        "type": "Point",
        "coordinates": [
          14.6840189,
          48.613788
        ]
      },
      "properties": {
        "@type": "node",
        "@id": 575749249,
        "@url": "https://www.openstreetmap.org/node/575749249",
        "ele": "904.74"
      }
    },
    {
      "type": "Feature",
      "geometry": {
        "type": "Point",
        "coordinates": [
          14.683887,
          48.6136292
        ]
      },
      "properties": {
        "@type": "node",
        "@id": 575749256,
        "@url": "https://www.openstreetmap.org/node/575749256",
        "ele": "903.78"
      }
    },
    {
      "type": "Feature",
      "geometry": {
        "type": "Point",
        "coordinates": [
          14.6838153,
          48.6134865
        ]
      },
      "properties": {
        "@type": "node",
        "@id": 575749259,
        "@url": "https://www.openstreetmap.org/node/575749259",
        "ele": "902.82"
      }
    },
    {
      "type": "Feature",
      "geometry": {
        "type": "Point",
        "coordinates": [
          14.6835642,
          48.6132143
        ]
      },
      "properties": {
        "@type": "node",
        "@id": 575749260,
        "@url": "https://www.openstreetmap.org/node/575749260",
        "ele": "900.41"
      }
    },
    {
      "type": "Feature",
      "geometry": {
        "type": "Point",
        "coordinates": [
          13.8720426,
          48.8113149
        ]
      },
      "properties": {
        "@type": "node",
        "@id": 576699854,
        "@url": "https://www.openstreetmap.org/node/576699854",
        "ele": "980",
        "name": "Plešivec",
        "name:de": "Flösselberg",
        "natural": "peak"
      }
    },
    {
      "type": "Feature",
      "geometry": {
        "type": "Point",
        "coordinates": [
          16.7105397,
          50.0094345
        ]
      },
      "properties": {
        "@type": "node",
        "@id": 602172361,
        "@url": "https://www.openstreetmap.org/node/602172361",
        "ele": "958",
        "hiking": "yes",
        "information": "guidepost",
        "name": "Buková hora",
        "operator": "cz:KČT",
        "ref": "UO135",
        "ski": "yes",
        "source": "gps",
        "tourism": "information"
      }
    },
    {
      "type": "Feature",
      "geometry": {
        "type": "Point",
        "coordinates": [
          16.700917,
          50.0211806
        ]
      },
      "properties": {
        "@type": "node",
        "@id": 602172370,
        "@url": "https://www.openstreetmap.org/node/602172370",
        "ele": "901",
        "name": "Jeřáb",
        "natural": "peak",
        "source": "ČÚZK",
        "wikidata": "Q12024675"
      }
    },
    {
      "type": "Feature",
      "geometry": {
        "type": "Point",
        "coordinates": [
          16.7107553,
          50.0145051
        ]
      },
      "properties": {
        "@type": "node",
        "@id": 602172567,
        "@url": "https://www.openstreetmap.org/node/602172567",
        "ele": "913",
        "hiking": "yes",
        "information": "guidepost",
        "name": "Buková hora (v sedle)",
        "operator": "cz:KČT",
        "ref": "UO241",
        "ski": "yes",
        "source": "gps",
        "tourism": "information"
      }
    },
    {
      "type": "Feature",
      "geometry": {
        "type": "Point",
        "coordinates": [
          17.1669033,
          50.2687392
        ]
      },
      "properties": {
        "@type": "node",
        "@id": 606998419,
        "@url": "https://www.openstreetmap.org/node/606998419",
        "ele": "967.3",
        "name": "Sokolí vrch",
        "name:de": "Nesselkoppe",
        "natural": "peak",
        "old_name": "Nesselkoppe",
        "source": "cuzk:km"
      }
    },
    {
      "type": "Feature",
      "geometry": {
        "type": "Point",
        "coordinates": [
          17.782663,
          48.9167088
        ]
      },
      "properties": {
        "@type": "node",
        "@id": 615779049,
        "@url": "https://www.openstreetmap.org/node/615779049",
        "ele": "911",
        "ele:bpv": "911.28",
        "import_ref": "Záväzné názvoslovie vrchov",
        "name": "Veľký Lopeník",
        "name:cs": "Velký Lopeník",
        "name:sk": "Veľký Lopeník",
        "natural": "peak",
        "prominence": "401",
        "source:ele:bpv": "ÚGKK SR DMR5.0",
        "source:name": "skgeodesy.sk",
        "source:position": "ÚGKK SR DMR5.0",
        "summit:cross": "no",
        "summit:register": "yes",
        "website": "https://en.wikipedia.org/wiki/Velk%C3%BD_Lopen%C3%ADk",
        "wikidata": "Q1277020",
        "wikipedia": "sk:Veľký Lopeník"
      }
    },
    {
      "type": "Feature",
      "geometry": {
        "type": "Point",
        "coordinates": [
          18.1630863,
          49.2609219
        ]
      },
      "properties": {
        "@type": "node",
        "@id": 615819816,
        "@url": "https://www.openstreetmap.org/node/615819816",
        "ele": "923",
        "ele:bpv": "922.61",
        "name": "Makyta",
        "natural": "peak",
        "prominence": "232",
        "source:ele:bpv": "ÚGKK SR DMR5.0",
        "source:position": "ÚGKK SR DMR5.0",
        "wikidata": "Q1886573"
      }
    },
    {
      "type": "Feature",
      "geometry": {
        "type": "Point",
        "coordinates": [
          18.6271896,
          49.6277048
        ]
      },
      "properties": {
        "@type": "node",
        "@id": 616083174,
        "@url": "https://www.openstreetmap.org/node/616083174",
        "ele": "948",
        "name": "Malý Javorový",
        "natural": "peak",
        "source": "ČÚZK",
        "wikidata": "Q104762277"
      }
    },
    {
      "type": "Feature",
      "geometry": {
        "type": "Point",
        "coordinates": [
          12.7182231,
          50.3895078
        ]
      },
      "properties": {
        "@type": "node",
        "@id": 631828757,
        "@url": "https://www.openstreetmap.org/node/631828757",
        "amenity": "shelter",
        "ele": "990",
        "shelter_type": "weather_shelter"
      }
    },
    {
      "type": "Feature",
      "geometry": {
        "type": "Point",
        "coordinates": [
          12.6969395,
          50.3991291
        ]
      },
      "properties": {
        "@type": "node",
        "@id": 631828758,
        "@url": "https://www.openstreetmap.org/node/631828758",
        "amenity": "shelter",
        "ele": "957",
        "shelter_type": "weather_shelter"
      }
    },
    {
      "type": "Feature",
      "geometry": {
        "type": "Point",
        "coordinates": [
          12.7673028,
          50.3729013
        ]
      },
      "properties": {
        "@type": "node",
        "@id": 631828763,
        "@url": "https://www.openstreetmap.org/node/631828763",
        "amenity": "place_of_worship",
        "building": "chapel",
        "check_date": "2024-10-27",
        "ele": "915",
        "name": "Kaple Panny Marie",
        "religion": "christian"
      }
    },
    {
      "type": "Feature",
      "geometry": {
        "type": "Point",
        "coordinates": [
          15.3318949,
          50.843637
        ]
      },
      "properties": {
        "@type": "node",
        "@id": 648476188,
        "@url": "https://www.openstreetmap.org/node/648476188",
        "ele": "975",
        "hiking": "yes",
        "information": "guidepost",
        "name": "Pytlácké kameny",
        "operator": "cz:KČT",
        "ref": "LB675",
        "tourism": "information"
      }
    },
    {
      "type": "Feature",
      "geometry": {
        "type": "Point",
        "coordinates": [
          18.3067482,
          49.4660716
        ]
      },
      "properties": {
        "@type": "node",
        "@id": 658709563,
        "@url": "https://www.openstreetmap.org/node/658709563",
        "ele": "999",
        "name": "Bukovina",
        "natural": "peak",
        "source": "ČÚZK"
      }
    },
    {
      "type": "Feature",
      "geometry": {
        "type": "Point",
        "coordinates": [
          18.8046022,
          49.6788561
        ]
      },
      "properties": {
        "@type": "node",
        "@id": 658734058,
        "@url": "https://www.openstreetmap.org/node/658734058",
        "alt_name:de": "Czantory",
        "alt_name:pl": "Wielka Czantoria",
        "ele": "995",
        "name": "Czantoria Wielka / Velká Čantoryje",
        "name:cs": "Velká Čantoryje",
        "name:de": "Großer Czantory-Berg",
        "name:pl": "Czantoria Wielka",
        "natural": "peak",
        "prominence": "311",
        "wikidata": "Q1305490",
        "wikipedia": "pl:Czantoria Wielka"
      }
    },
    {
      "type": "Feature",
      "geometry": {
        "type": "Point",
        "coordinates": [
          12.777292,
          49.3662495
        ]
      },
      "properties": {
        "@type": "node",
        "@id": 771217639,
        "@url": "https://www.openstreetmap.org/node/771217639",
        "ele": "915",
        "hiking": "yes",
        "information": "guidepost",
        "name": "Na Zlomu",
        "operator": "cz:KČT",
        "ref": "DO205",
        "source": "survey",
        "tourism": "information"
      }
    },
    {
      "type": "Feature",
      "geometry": {
        "type": "Point",
        "coordinates": [
          12.7859365,
          49.3455435
        ]
      },
      "properties": {
        "@type": "node",
        "@id": 771217646,
        "@url": "https://www.openstreetmap.org/node/771217646",
        "ele": "900",
        "hiking": "yes",
        "information": "guidepost",
        "name": "Tři znaky CZ/D",
        "operator": "cz:KČT",
        "ref": "DO206",
        "source": "survey",
        "tourism": "information"
      }
    },
    {
      "type": "Feature",
      "geometry": {
        "type": "Point",
        "coordinates": [
          18.826695,
          49.5969455
        ]
      },
      "properties": {
        "@type": "node",
        "@id": 771384420,
        "@url": "https://www.openstreetmap.org/node/771384420",
        "ele": "978",
        "name": "Krkavice / Kyrkawica",
        "name:cs": "Krkavice",
        "name:pl": "Kyrkawica",
        "natural": "peak",
        "prominence": "25",
        "source": "ČÚZK",
        "wikidata": "Q11751811",
        "wikipedia": "cs:Krkavice (Slezské Beskydy)"
      }
    },
    {
      "type": "Feature",
      "geometry": {
        "type": "Point",
        "coordinates": [
          17.2427569,
          50.0535384
        ]
      },
      "properties": {
        "@type": "node",
        "@id": 777338559,
        "@url": "https://www.openstreetmap.org/node/777338559",
        "ele": "987",
        "hiking": "yes",
        "information": "guidepost",
        "name": "Velký kotel (nástup)",
        "ref": "BR137",
        "source": "gps",
        "tourism": "information"
      }
    },
    {
      "type": "Feature",
      "geometry": {
        "type": "Point",
        "coordinates": [
          12.5673231,
          50.3693643
        ]
      },
      "properties": {
        "@type": "node",
        "@id": 818601107,
        "@url": "https://www.openstreetmap.org/node/818601107",
        "ele": "995",
        "name": "Špičák",
        "name:de": "Spitzberg",
        "natural": "peak",
        "source": "ČÚZK",
        "wikidata": "Q17295704",
        "wikipedia": "cs:Špičák (Přebuzská hornatina)"
      }
    },
    {
      "type": "Feature",
      "geometry": {
        "type": "Point",
        "coordinates": [
          15.2729286,
          50.8813328
        ]
      },
      "properties": {
        "@type": "node",
        "@id": 840038985,
        "@url": "https://www.openstreetmap.org/node/840038985",
        "check_date": "2024-05-01",
        "description": "Highest asphalted point on the Smrk / Tafelfichte.",
        "ele": "938",
        "source": "survey",
        "tourism": "viewpoint"
      }
    },
    {
      "type": "Feature",
      "geometry": {
        "type": "Point",
        "coordinates": [
          17.0451528,
          50.2422858
        ]
      },
      "properties": {
        "@type": "node",
        "@id": 877891835,
        "@url": "https://www.openstreetmap.org/node/877891835",
        "ele": "975",
        "hiking": "yes",
        "information": "guidepost",
        "name": "Tři studánky",
        "operator": "cz:KČT",
        "ref": "JE130",
        "ski": "yes",
        "tourism": "information"
      }
    },
    {
      "type": "Feature",
      "geometry": {
        "type": "Point",
        "coordinates": [
          15.3612412,
          50.7450485
        ]
      },
      "properties": {
        "@type": "node",
        "@id": 885185446,
        "@url": "https://www.openstreetmap.org/node/885185446",
        "ele": "924",
        "hiking": "yes",
        "information": "guidepost",
        "name": "Pod Hvězdou",
        "operator": "cz:KČT",
        "ref": "LB554",
        "tourism": "information"
      }
    },
    {
      "type": "Feature",
      "geometry": {
        "type": "Point",
        "coordinates": [
          13.4372639,
          50.5823369
        ]
      },
      "properties": {
        "@type": "node",
        "@id": 900518808,
        "@url": "https://www.openstreetmap.org/node/900518808",
        "ele": "921.3",
        "name": "Lesenská pláň",
        "name:de": "Hübladung",
        "natural": "peak",
        "source": "wikipedia",
        "wikidata": "Q1820676",
        "wikipedia": "de:Lesenská pláň"
      }
    },
    {
      "type": "Feature",
      "geometry": {
        "type": "Point",
        "coordinates": [
          12.821712,
          50.4322729
        ]
      },
      "properties": {
        "@type": "node",
        "@id": 904964685,
        "@url": "https://www.openstreetmap.org/node/904964685",
        "ele": "967.8",
        "name": "Komáří Vrch",
        "name:de": "Mückenberg",
        "natural": "peak",
        "source": "local_knowledge"
      }
    },
    {
      "type": "Feature",
      "geometry": {
        "type": "Point",
        "coordinates": [
          17.0478543,
          50.1049572
        ]
      },
      "properties": {
        "@type": "node",
        "@id": 909070857,
        "@url": "https://www.openstreetmap.org/node/909070857",
        "ele": "926",
        "name": "Tři kameny",
        "natural": "peak",
        "source": "ČÚZK",
        "tourism": "viewpoint"
      }
    },
    {
      "type": "Feature",
      "geometry": {
        "type": "Point",
        "coordinates": [
          12.7700455,
          49.3768242
        ]
      },
      "properties": {
        "@type": "node",
        "@id": 915269721,
        "@url": "https://www.openstreetmap.org/node/915269721",
        "ele": "900",
        "hiking": "yes",
        "information": "guidepost",
        "name": "U studánky - 900m",
        "operator": "cz:KČT",
        "ref": "DO204",
        "tourism": "information"
      }
    },
    {
      "type": "Feature",
      "geometry": {
        "type": "Point",
        "coordinates": [
          12.7743172,
          49.3767118
        ]
      },
      "properties": {
        "@type": "node",
        "@id": 915699845,
        "@url": "https://www.openstreetmap.org/node/915699845",
        "ele": "923",
        "hiking": "yes",
        "information": "guidepost",
        "name": "Kamenná loučka",
        "operator": "cz:KČT",
        "ref": "DO203",
        "tourism": "information"
      }
    },
    {
      "type": "Feature",
      "geometry": {
        "type": "Point",
        "coordinates": [
          12.5029741,
          49.9677096
        ]
      },
      "properties": {
        "@type": "node",
        "@id": 918718849,
        "@url": "https://www.openstreetmap.org/node/918718849",
        "alt_name:de": "Tillen",
        "ele": "939",
        "name": "Dyleň",
        "name:de": "Tillenberg",
        "natural": "peak",
        "prominence": "335",
        "wikidata": "Q317719",
        "wikipedia": "cs:Dyleň"
      }
    },
    {
      "type": "Feature",
      "geometry": {
        "type": "Point",
        "coordinates": [
          17.0477604,
          50.1046655
        ]
      },
      "properties": {
        "@type": "node",
        "@id": 925605162,
        "@url": "https://www.openstreetmap.org/node/925605162",
        "ele": "920",
        "hiking": "yes",
        "information": "guidepost",
        "name": "Tři Kameny (Vyhl.)",
        "operator": "cz:KČT",
        "ref": "ŠU532",
        "ski": "yes",
        "tourism": "information"
      }
    },
    {
      "type": "Feature",
      "geometry": {
        "type": "Point",
        "coordinates": [
          13.6445596,
          49.1348435
        ]
      },
      "properties": {
        "@type": "node",
        "@id": 947186315,
        "@url": "https://www.openstreetmap.org/node/947186315",
        "ele": "975",
        "hiking": "yes",
        "information": "guidepost",
        "name": "Krásná vyhlídka",
        "operator": "cz:KČT",
        "ref": "PT005",
        "source": "survey",
        "tourism": "information"
      }
    },
    {
      "type": "Feature",
      "geometry": {
        "type": "Point",
        "coordinates": [
          12.9020102,
          50.4127677
        ]
      },