{
  "type": "FeatureCollection",
  "features": [
    {
      "type": "Feature",
      "geometry": {
        "type": "Point",
        "coordinates": [
          13.9314123,
          50.5547974
        ]
      },
      "properties": {
        "@type": "node",
        "@id": 26863698,
        "@url": "https://www.openstreetmap.org/node/26863698",
        "alt_name": "Donnersberg",
        "alt_name:de": "Donnersberg",
        "ele": "837",
        "name": "Milešovka",
        "name:de": "Milleschauer",
        "natural": "peak",
        "prominence": "620",
        "source:ele": "cs.wikipedia.org",
        "wikidata": "Q50482382",
        "wikipedia": "cs:Milešovka"
      }
    },
    {
      "type": "Feature",
      "geometry": {
        "type": "Point",
        "coordinates": [
          15.6297174,
          50.6620767
        ]
      },
      "properties": {
        "@type": "node",
        "@id": 127033973,
        "@url": "https://www.openstreetmap.org/node/127033973",
        "addr:city": "Dolní Dvůr",
        "addr:conscriptionnumber": "123",
        "addr:country": "CZ",
        "addr:housenumber": "123",
        "addr:place": "Dolní Dvůr",
        "addr:postcode": "54342",
        "addr:street": "Dolní Dvůr",
        "ele": "860",
        "name": "Wellness hotel LIBERECKÁ BOUDA",
        "note": "Newly built mountain hotel with wellness services (indoor pool, whirlpool, sauna, massage) in the heart of the Giant Mountains is located right at the top station SKI AREA Luisino Valley Lower Court. Liberecká cottage is set in beautiful unspoiled country",
        "operator": "Liberecká bouda",
        "phone": "+420602364636",
        "ref:ruian:addr": "9877495",
        "smoking": "outside",
        "tourism": "hotel",
        "website": "https://www.libereckabouda.cz/",
        "wheelchair": "yes"
      }
    },
    {
      "type": "Feature",
      "geometry": {
        "type": "Point",
        "coordinates": [
          13.8564498,
          50.7066166
        ]
      },
      "properties": {
        "@type": "node",
        "@id": 240507943,
        "@url": "https://www.openstreetmap.org/node/240507943",
        "ele": "809",
        "name": "Komáří hůrka",
        "name:cs": "Komáří hůrka",
        "name:de": "Mückenberg",
        "natural": "peak",
        "tourism": "viewpoint",
        "wikidata": "Q879584",
        "wikipedia": "cs:Komáří hůrka"
      }
    },
    {
      "type": "Feature",
      "geometry": {
        "type": "Point",
        "coordinates": [
          15.3677117,
          50.7410156
        ]
      },
      "properties": {
        "@type": "node",
        "@id": 250733595,
        "@url": "https://www.openstreetmap.org/node/250733595",
        "ele": "857",
        "mountain_pass": "yes",
        "source": "HELP SERVICE - REMOTE SENSING spol. s r.o. http://www.bnhelp.cz"
      }
    },
    {
      "type": "Feature",
      "geometry": {
        "type": "Point",
        "coordinates": [
          12.7822263,
          49.429254
        ]
      },
      "properties": {
        "@type": "node",
        "@id": 256939540,
        "@url": "https://www.openstreetmap.org/node/256939540",
        "ele": "854",
        "name": "Sádek",
        "natural": "peak"
      }
    },
    {
      "type": "Feature",
      "geometry": {
        "type": "Point",
        "coordinates": [
          12.7778305,
          49.4321905
        ]
      },
      "properties": {
        "@type": "node",
        "@id": 257101403,
        "@url": "https://www.openstreetmap.org/node/257101403",
        "ele": "830",
        "hiking": "yes",
        "information": "guidepost",
        "name": "Pod Sádkem",
        "operator": "cz:KČT",
        "ref": "DO027",
        "tourism": "information"
      }
    },
    {
      "type": "Feature",
      "geometry": {
        "type": "Point",
        "coordinates": [
          12.7717426,
          49.4364832
        ]
      },
      "properties": {
        "@type": "node",
        "@id": 260142910,
        "@url": "https://www.openstreetmap.org/node/260142910",
        "ele": "807",
        "hiking": "yes",
        "information": "guidepost",
        "name": "Pod Haltravou (rozcestí)",
        "official_name": "Pod Haltravou (rozc.)",
        "operator": "cz:KČT",
        "ref": "DO028",
        "tourism": "information"
      }
    },
    {
      "type": "Feature",
      "geometry": {
        "type": "Point",
        "coordinates": [
          12.4099095,
          49.7426235
        ]
      },
      "properties": {
        "@type": "node",
        "@id": 267272087,
        "@url": "https://www.openstreetmap.org/node/267272087",
        "ele": "894",
        "name": "Havran",
        "name:cs": "Havran",
        "name:de": "Großer Rabenberg",
        "natural": "peak"
      }
    },
    {
      "type": "Feature",
      "geometry": {
        "type": "Point",
        "coordinates": [
          13.7073545,
          50.6858735
        ]
      },
      "properties": {
        "@type": "node",
        "@id": 267779189,
        "@url": "https://www.openstreetmap.org/node/267779189",
        "ele": "869",
        "name": "Bouřňák",
        "name:de": "Stürmer",
        "natural": "peak",
        "wikidata": "Q895335",
        "wikipedia": "cs:Bouřňák"
      }
    },
    {
      "type": "Feature",
      "geometry": {
        "type": "Point",
        "coordinates": [
          14.0229584,
          48.6335109
        ]
      },
      "properties": {
        "@type": "node",
        "@id": 268779370,
        "@url": "https://www.openstreetmap.org/node/268779370",
        "ele": "805",
        "natural": "peak"
      }
    },
    {
      "type": "Feature",
      "geometry": {
        "type": "Point",
        "coordinates": [
          14.0317245,
          48.6475533
        ]
      },
      "properties": {
        "@type": "node",
        "@id": 268779934,
        "@url": "https://www.openstreetmap.org/node/268779934",
        "ele": "844",
        "name": "U věže",
        "name:cs": "U věže",
        "name:de": "Steinberg",
        "natural": "peak",
        "source": "ČÚZK"
      }
    },
    {
      "type": "Feature",
      "geometry": {
        "type": "Point",
        "coordinates": [
          14.1592576,
          48.6196887
        ]
      },
      "properties": {
        "@type": "node",
        "@id": 268779972,
        "@url": "https://www.openstreetmap.org/node/268779972",
        "ele": "812",
        "natural": "peak"
      }
    },
    {
      "type": "Feature",
      "geometry": {
        "type": "Point",
        "coordinates": [
          14.2946779,
          48.6039915
        ]
      },
      "properties": {
        "@type": "node",
        "@id": 268780448,
        "@url": "https://www.openstreetmap.org/node/268780448",
        "ele": "847",
        "name": "Martínkovský vrch",
        "name:cs": "Martínkovský vrch",
        "name:de": "Martinsberg",
        "natural": "peak",
        "source": "ČÚZK"
      }
    },
    {
      "type": "Feature",
      "geometry": {
        "type": "Point",
        "coordinates": [
          14.329016,
          48.5586104
        ]
      },
      "properties": {
        "@type": "node",
        "@id": 268780958,
        "@url": "https://www.openstreetmap.org/node/268780958",
        "ele": "808",
        "name": "Radvanovský vrch",
        "name:de": "Schillerberg",
        "natural": "peak"
      }
    },
    {
      "type": "Feature",
      "geometry": {
        "type": "Point",
        "coordinates": [
          13.997586,
          48.7236666
        ]
      },
      "properties": {
        "@type": "node",
        "@id": 270092168,
        "@url": "https://www.openstreetmap.org/node/270092168",
        "ele": "845",
        "name": "Zvonkovský vrch",
        "name:de": "Wuselberg",
        "natural": "peak"
      }
    },
    {
      "type": "Feature",
      "geometry": {
        "type": "Point",
        "coordinates": [
          14.0163905,
          48.7320206
        ]
      },
      "properties": {
        "@type": "node",
        "@id": 270092170,
        "@url": "https://www.openstreetmap.org/node/270092170",
        "ele": "801",
        "natural": "peak"
      }
    },
    {
      "type": "Feature",
      "geometry": {
        "type": "Point",
        "coordinates": [
          14.0231636,
          48.7061108
        ]
      },
      "properties": {
        "@type": "node",
        "@id": 270092172,
        "@url": "https://www.openstreetmap.org/node/270092172",
        "ele": "842",
        "name": "Pestřický vrch",
        "name:cs": "Pestřický vrch",
        "name:de": "Hüttberg",
        "natural": "peak"
      }
    },
    {
      "type": "Feature",
      "geometry": {
        "type": "Point",
        "coordinates": [
          14.023772,
          48.7334925
        ]
      },
      "properties": {
        "@type": "node",
        "@id": 270092175,
        "@url": "https://www.openstreetmap.org/node/270092175",
        "ele": "805",
        "natural": "peak"
      }
    },
    {
      "type": "Feature",
      "geometry": {
        "type": "Point",
        "coordinates": [
          14.0377977,
          48.7282032
        ]
      },
      "properties": {
        "@type": "node",
        "@id": 270092178,
        "@url": "https://www.openstreetmap.org/node/270092178",
        "ele": "812",
        "name": "Kozí vrch",
        "name:de": "Geissberg",
        "natural": "peak"
      }
    },
    {
      "type": "Feature",
      "geometry": {
        "type": "Point",
        "coordinates": [
          14.0177352,
          48.7214901
        ]
      },
      "properties": {
        "@type": "node",
        "@id": 270092179,
        "@url": "https://www.openstreetmap.org/node/270092179",
        "ele": "808",
        "natural": "peak",
        "source": "ČÚZK"
      }
    },
    {
      "type": "Feature",
      "geometry": {
        "type": "Point",
        "coordinates": [
          13.9794865,
          48.754806
        ]
      },
      "properties": {
        "@type": "node",
        "@id": 270092181,
        "@url": "https://www.openstreetmap.org/node/270092181",
        "ele": "899",
        "name": "Šešovec",
        "name:de": "Scheschberg",
        "natural": "peak"
      }
    },
    {
      "type": "Feature",
      "geometry": {
        "type": "Point",
        "coordinates": [
          13.999911,
          48.7533023
        ]
      },
      "properties": {
        "@type": "node",
        "@id": 270092182,
        "@url": "https://www.openstreetmap.org/node/270092182",
        "ele": "884",
        "name": "Lhotský vrch",
        "natural": "peak"
      }
    },
    {
      "type": "Feature",
      "geometry": {
        "type": "Point",
        "coordinates": [
          13.5097775,
          49.0724266
        ]
      },
      "properties": {
        "@type": "node",
        "@id": 288512140,
        "@url": "https://www.openstreetmap.org/node/288512140",
        "ele": "850",
        "hiking": "yes",
        "information": "guidepost",
        "name": "Klostermannův most",
        "operator": "cz:KČT",
        "ref": "SE016",
        "tourism": "information"
      }
    },
    {
      "type": "Feature",
      "geometry": {
        "type": "Point",
        "coordinates": [
          13.5148183,
          49.0822584
        ]
      },
      "properties": {
        "@type": "node",
        "@id": 288512156,
        "@url": "https://www.openstreetmap.org/node/288512156",
        "ele": "800",
        "hiking": "yes",
        "information": "guidepost",
        "name": "Turnerova chata",
        "name:de": "Turnerhütte",
        "operator": "cz:KČT",
        "ref": "SE024",
        "tourism": "information"
      }
    },
    {
      "type": "Feature",
      "geometry": {
        "type": "Point",
        "coordinates": [
          18.2428735,
          49.3895606
        ]
      },
      "properties": {
        "@type": "node",
        "@id": 291203956,
        "@url": "https://www.openstreetmap.org/node/291203956",
        "beds": "55",
        "ele": "810",
        "email": "recepce@solansedlo.cz",
        "internet_access": "yes",
        "name": "Horský hotel Čarták",
        "phone": "+420 604 207 208",
        "rooms": "20",
        "tourism": "alpine_hut",
        "website": "http://www.hotelcartak.cz/"
      }
    },
    {
      "type": "Feature",
      "geometry": {
        "type": "Point",
        "coordinates": [
          13.511541,
          49.0772842
        ]
      },
      "properties": {
        "@type": "node",
        "@id": 299408855,
        "@url": "https://www.openstreetmap.org/node/299408855",
        "ele": "840",
        "hiking": "yes",
        "information": "guidepost",
        "name": "Hálkova chata",
        "operator": "cz:KČT",
        "ref": "0226/25",
        "tourism": "information"
      }
    },
    {
      "type": "Feature",
      "geometry": {
        "type": "Point",
        "coordinates": [
          13.8767912,
          49.7044755
        ]
      },
      "properties": {
        "@type": "node",
        "@id": 301484516,
        "@url": "https://www.openstreetmap.org/node/301484516",
        "ele": "865.3",
        "name": "Tok",
        "natural": "peak",
        "prominence": "333",
        "wikidata": "Q10817953",
        "wikipedia": "cs:Tok (Brdská vrchovina)"
      }
    },
    {
      "type": "Feature",
      "geometry": {
        "type": "Point",
        "coordinates": [
          13.7324526,
          50.7181628
        ]
      },
      "properties": {
        "@type": "node",
        "@id": 302045924,
        "@url": "https://www.openstreetmap.org/node/302045924",
        "ele": "884",
        "name": "Na Skále",
        "name:cs": "Na Skále",
        "name:de": "Meiersberg",
        "natural": "peak"
      }
    },
    {
      "type": "Feature",
      "geometry": {
        "type": "Point",
        "coordinates": [
          15.5163961,
          50.7324323
        ]
      },
      "properties": {
        "@type": "node",
        "@id": 302543248,
        "@url": "https://www.openstreetmap.org/node/302543248",
        "bicycle": "yes",
        "ele": "883",
        "hiking": "yes",
        "information": "guidepost",
        "name": "Vidlice",
        "operator": "cz:KČT",
        "ref": "SK162;MT007",
        "ski": "yes",
        "source": "survey",
        "tourism": "information"
      }
    },
    {
      "type": "Feature",
      "geometry": {
        "type": "Point",
        "coordinates": [
          13.2226317,
          49.1617116
        ]
      },
      "properties": {
        "@type": "node",
        "@id": 304677891,
        "@url": "https://www.openstreetmap.org/node/304677891",
        "ele": "835",
        "name": "Špičák",
        "name:de": "Spitzberg",
        "public_transport": "station",
        "railway": "station"
      }
    },
    {
      "type": "Feature",
      "geometry": {
        "type": "Point",
        "coordinates": [
          18.1840307,
          49.2870373
        ]
      },
      "properties": {
        "@type": "node",
        "@id": 322554332,
        "@url": "https://www.openstreetmap.org/node/322554332",
        "ele": "867",
        "hiking": "yes",
        "information": "guidepost",
        "name": "Krkostěna",
        "operator": "cz:KČT",
        "ref": "VS455",
        "tourism": "information"
      }
    },
    {
      "type": "Feature",
      "geometry": {
        "type": "Point",
        "coordinates": [
          13.3339668,
          49.1745785
        ]
      },
      "properties": {
        "@type": "node",
        "@id": 324576473,
        "@url": "https://www.openstreetmap.org/node/324576473",
        "ele": "888",
        "hiking": "yes",
        "information": "guidepost",
        "name": "Zhůřský potok",
        "operator": "cz:KČT",
        "ref": "SE010",
        "ski": "yes",
        "source": "survey",
        "tourism": "information"
      }
    },
    {
      "type": "Feature",
      "geometry": {
        "type": "Point",
        "coordinates": [
          13.3266034,
          49.1454
        ]
      },
      "properties": {
        "@type": "node",
        "@id": 325121552,
        "@url": "https://www.openstreetmap.org/node/325121552",
        "ele": "890",
        "hiking": "yes",
        "information": "guidepost",
        "name": "Nová Hůrka",
        "operator": "cz:KČT",
        "ref": "SE091",
        "source": "survey",
        "tourism": "information"
      }
    },
    {
      "type": "Feature",
      "geometry": {
        "type": "Point",
        "coordinates": [
          16.7924489,
          50.1445661
        ]
      },
      "properties": {
        "@type": "node",
        "@id": 333183552,
        "@url": "https://www.openstreetmap.org/node/333183552",
        "bicycle": "yes",
        "ele": "863",
        "hiking": "yes",
        "information": "guidepost",
        "name": "Pod Klepáčem",
        "operator": "cz:KČT",
        "ref": "UO013",
        "ski": "yes",
        "tourism": "information"
      }
    },
    {
      "type": "Feature",
      "geometry": {
        "type": "Point",
        "coordinates": [
          13.9315506,
          50.5549889
        ]
      },
      "properties": {
        "@type": "node",
        "@id": 336735993,
        "@url": "https://www.openstreetmap.org/node/336735993",
        "description": "Nejvyšší hora Českého středohoří.",
        "ele": "837",
        "hiking": "yes",
        "information": "guidepost",
        "name": "Milešovka, vrchol",
        "name:de": "Milleschauer, Gipfel",
        "operator": "cz:KČT",
        "ref": "TP073",
        "tourism": "information"
      }
    },
    {
      "type": "Feature",
      "geometry": {
        "type": "Point",
        "coordinates": [
          15.2805415,
          50.8310349
        ]
      },
      "properties": {
        "@type": "node",
        "@id": 343509711,
        "@url": "https://www.openstreetmap.org/node/343509711",
        "alt_name": "Kůrovec",
        "ele": "887",
        "hiking": "yes",
        "information": "guidepost",
        "name": "U Studánky",
        "operator": "cz:KČT",
        "ref": "0399/14;LB686",
        "ski": "yes",
        "source": "survey",
        "tourism": "information"
      }
    },
    {
      "type": "Feature",
      "geometry": {
        "type": "Point",
        "coordinates": [
          15.1657018,
          50.8453154
        ]
      },
      "properties": {
        "@type": "node",
        "@id": 343509968,
        "@url": "https://www.openstreetmap.org/node/343509968",
        "ele": "879",
        "hiking": "yes",
        "information": "guidepost",
        "name": "Točna",
        "operator": "cz:KČT",
        "ref": "LB343",
        "ski": "yes",
        "source": "survey",
        "tourism": "information"
      }
    },
    {
      "type": "Feature",
      "geometry": {
        "type": "Point",
        "coordinates": [
          15.1687755,
          50.8504962
        ]
      },
      "properties": {
        "@type": "node",
        "@id": 343509977,
        "@url": "https://www.openstreetmap.org/node/343509977",
        "ele": "860",
        "hiking": "yes",
        "information": "guidepost",
        "name": "Pod Ptačími kupami",
        "operator": "cz:KČT",
        "ref": "LB007",
        "source": "survey",
        "tourism": "information"
      }
    },
    {
      "type": "Feature",
      "geometry": {
        "type": "Point",
        "coordinates": [
          15.1446069,
          50.8261943
        ]
      },
      "properties": {
        "@type": "node",
        "@id": 343509994,
        "@url": "https://www.openstreetmap.org/node/343509994",
        "ele": "830",
        "hiking": "yes",
        "information": "guidepost",
        "name": "Pod Olivetskou horou",
        "operator": "cz:KČT",
        "ref": "LB165",
        "ski": "yes",
        "source": "survey",
        "tourism": "information"
      }
    },
    {
      "type": "Feature",
      "geometry": {
        "type": "Point",
        "coordinates": [
          15.2784166,
          50.8013612
        ]
      },
      "properties": {
        "@type": "node",
        "@id": 343511453,
        "@url": "https://www.openstreetmap.org/node/343511453",
        "ele": "820",
        "hiking": "yes",
        "information": "guidepost",
        "name": "Protržená přehrada",
        "name:de": "Dammbruch",
        "operator": "cz:KČT",
        "ref": "LB637",
        "source": "survey",
        "tourism": "information"
      }
    },
    {
      "type": "Feature",
      "geometry": {
        "type": "Point",
        "coordinates": [
          15.352035,
          50.8115726
        ]
      },
      "properties": {
        "@type": "node",
        "@id": 343511591,
        "@url": "https://www.openstreetmap.org/node/343511591",
        "ele": "895",
        "hiking": "yes",
        "information": "guidepost",
        "name": "Pod Bukovcem",
        "operator": "cz:KČT",
        "ref": "LB573",
        "source": "survey",
        "tourism": "information"
      }
    },
    {
      "type": "Feature",
      "geometry": {
        "type": "Point",
        "coordinates": [
          15.3450182,
          50.8185639
        ]
      },
      "properties": {
        "@type": "node",
        "@id": 343511770,
        "@url": "https://www.openstreetmap.org/node/343511770",
        "ele": "860",
        "hiking": "yes",
        "information": "guidepost",
        "name": "Jizerka - Panský dům",
        "operator": "cz:KČT",
        "ref": "JN072;LB572",
        "source": "survey",
        "tourism": "information"
      }
    },
    {
      "type": "Feature",
      "geometry": {
        "type": "Point",
        "coordinates": [
          15.283587,
          50.8622088
        ]
      },
      "properties": {
        "@type": "node",
        "@id": 343512697,
        "@url": "https://www.openstreetmap.org/node/343512697",
        "description": "Rozvodí mezi Baltským a Severním mořem",
        "ele": "888",
        "hiking": "yes",
        "information": "guidepost",
        "name": "Předěl",
        "operator": "cz:KČT",
        "ref": "LB073",
        "ski": "yes",
        "source": "survey",
        "tourism": "information"
      }
    },
    {
      "type": "Feature",
      "geometry": {
        "type": "Point",
        "coordinates": [
          15.2844038,
          50.8740922
        ]
      },
      "properties": {
        "@type": "node",
        "@id": 343512698,
        "@url": "https://www.openstreetmap.org/node/343512698",
        "ele": "877",
        "hiking": "yes",
        "information": "guidepost",
        "name": "Na písčinách",
        "name:cs": "Na písčinách",
        "name:de": "Auf dem Sand",
        "operator": "cz:KČT",
        "ref": "LB0072",
        "source": "survey",
        "tourism": "information"
      }
    },
    {
      "type": "Feature",
      "geometry": {
        "type": "Point",
        "coordinates": [
          15.2086749,
          50.8086232
        ]
      },
      "properties": {
        "@type": "node",
        "@id": 347049024,
        "@url": "https://www.openstreetmap.org/node/347049024",
        "ele": "884.7",
        "name": "Černý vrch",
        "natural": "peak",
        "source": "uhul:vrstevnice"
      }
    },
    {
      "type": "Feature",
      "geometry": {
        "type": "Point",
        "coordinates": [
          15.2843174,
          50.7884212
        ]
      },
      "properties": {
        "@type": "node",
        "@id": 347049040,
        "@url": "https://www.openstreetmap.org/node/347049040",
        "ele": "804",
        "natural": "peak",
        "source": "uhul:vrstevnice"
      }
    },
    {
      "type": "Feature",
      "geometry": {
        "type": "Point",
        "coordinates": [
          15.2705903,
          50.7892991
        ]
      },
      "properties": {
        "@type": "node",
        "@id": 347049054,
        "@url": "https://www.openstreetmap.org/node/347049054",
        "ele": "868.4",
        "historic": "ruins",
        "name": "Bučina",
        "name:de": "Buchenwald",
        "natural": "peak",
        "source": "uhul:vrstevnice"
      }
    },
    {
      "type": "Feature",
      "geometry": {
        "type": "Point",
        "coordinates": [
          15.3534646,
          50.7779307
        ]
      },
      "properties": {
        "@type": "node",
        "@id": 347049104,
        "@url": "https://www.openstreetmap.org/node/347049104",
        "ele": "868",
        "name": "Dlouhá skála",
        "natural": "peak",
        "source": "uhul:vrstevnice"
      }
    },
    {
      "type": "Feature",
      "geometry": {
        "type": "Point",
        "coordinates": [
          15.1420458,
          50.8545123
        ]
      },
      "properties": {
        "@type": "node",
        "@id": 347049161,
        "@url": "https://www.openstreetmap.org/node/347049161",
        "ele": "846.0",
        "natural": "peak",
        "source": "uhul:vrstevnice"
      }
    },
    {
      "type": "Feature",
      "geometry": {
        "type": "Point",
        "coordinates": [
          15.1416259,
          50.838981
        ]
      },
      "properties": {
        "@type": "node",
        "@id": 347049191,
        "@url": "https://www.openstreetmap.org/node/347049191",
        "ele": "885.9",
        "name": "Olivetská hora",
        "name:de": "Ölberg",
        "natural": "peak",
        "ref": "15",
        "source": "uhul:vrstevnice"
      }
    },
    {
      "type": "Feature",
      "geometry": {
        "type": "Point",
        "coordinates": [
          15.1162977,
          50.8226491
        ]
      },
      "properties": {
        "@type": "node",
        "@id": 347049209,
        "@url": "https://www.openstreetmap.org/node/347049209",
        "ele": "875.5",
        "name": "Brdo",
        "name:de": "Lange Farbe Berg",
        "natural": "peak",
        "source": "uhul:vrstevnice"
      }
    },
    {
      "type": "Feature",
      "geometry": {
        "type": "Point",
        "coordinates": [
          15.1734834,
          50.8154501
        ]
      },
      "properties": {
        "@type": "node",
        "@id": 347049234,
        "@url": "https://www.openstreetmap.org/node/347049234",
        "ele": "842.0",
        "name": "Chorvatský vrch",
        "natural": "peak"
      }
    },
    {
      "type": "Feature",
      "geometry": {
        "type": "Point",
        "coordinates": [
          15.2819466,
          50.7799725
        ]
      },
      "properties": {
        "@type": "node",
        "@id": 347049270,
        "@url": "https://www.openstreetmap.org/node/347049270",
        "ele": "844",
        "natural": "peak",
        "source": "uhul:vrstevnice"
      }
    },
    {
      "type": "Feature",
      "geometry": {
        "type": "Point",
        "coordinates": [
          17.3059581,
          50.0667923
        ]
      },
      "properties": {
        "@type": "node",
        "@id": 356866982,
        "@url": "https://www.openstreetmap.org/node/356866982",
        "bicycle": "yes",
        "ele": "860",
        "hiking": "yes",
        "information": "guidepost",
        "name": "Hvězda",
        "operator": "cz:KČT",
        "ref": "BR140",
        "ski": "yes",
        "tourism": "information"
      }
    },
    {
      "type": "Feature",
      "geometry": {
        "type": "Point",
        "coordinates": [
          15.6501291,
          50.672338
        ]
      },
      "properties": {
        "@type": "node",
        "@id": 367099702,
        "@url": "https://www.openstreetmap.org/node/367099702",
        "ele": "889.9",
        "natural": "peak",
        "source": "ČÚZK"
      }
    },
    {
      "type": "Feature",
      "geometry": {
        "type": "Point",
        "coordinates": [
          16.0322371,
          49.6707331
        ]
      },
      "properties": {
        "@type": "node",
        "@id": 375583675,
        "@url": "https://www.openstreetmap.org/node/375583675",
        "ele": "836",
        "name": "Devět skal",
        "name:de": "Neun Felsen",
        "natural": "peak",
        "prominence": "327",
        "source": "ČÚZK",
        "tourism": "viewpoint",
        "wheelchair": "no",
        "wikidata": "Q573570",
        "wikipedia": "cs:Devět skal"
      }
    },
    {
      "type": "Feature",
      "geometry": {
        "type": "Point",
        "coordinates": [
          13.2211339,
          49.1647435
        ]
      },
      "properties": {
        "@type": "node",
        "@id": 389781595,
        "@url": "https://www.openstreetmap.org/node/389781595",
        "ele": "860",
        "hiking": "yes",
        "information": "guidepost",
        "name": "Špičák (sportovní areál)",
        "official_name": "Špičák (sport.areál)",
        "operator": "cz:KČT",
        "ref": "KT040",
        "ski": "yes",
        "ski:nordic": "yes",
        "source": "survey",
        "tourism": "information"
      }
    },
    {
      "type": "Feature",
      "geometry": {
        "type": "Point",
        "coordinates": [
          12.6368131,
          49.5501423
        ]
      },
      "properties": {
        "@type": "node",
        "@id": 394877893,
        "@url": "https://www.openstreetmap.org/node/394877893",
        "ele": "862",
        "name": "Velký Zvon",
        "name:de": "Plattenberg",
        "natural": "peak",
        "old_name": "Zvon",
        "source": "ČÚZK",
        "wikidata": "Q2512496"
      }
    },
    {
      "type": "Feature",
      "geometry": {
        "type": "Point",
        "coordinates": [
          12.7504471,
          49.4537853
        ]
      },
      "properties": {
        "@type": "node",
        "@id": 408725959,
        "@url": "https://www.openstreetmap.org/node/408725959",
        "ele": "887",
        "name": "Škarmanka",
        "natural": "peak"
      }
    },
    {
      "type": "Feature",
      "geometry": {
        "type": "Point",
        "coordinates": [
          14.9816045,
          50.7521267
        ]
      },
      "properties": {
        "@type": "node",
        "@id": 412058154,
        "@url": "https://www.openstreetmap.org/node/412058154",
        "ele": "811",
        "name": "Černá hora",
        "name:de": "Schwarzer Berg",
        "natural": "peak",
        "wikidata": "Q15987327"
      }
    },
    {
      "type": "Feature",
      "geometry": {
        "type": "Point",
        "coordinates": [
          15.2337247,
          50.7116738
        ]
      },
      "properties": {
        "@type": "node",
        "@id": 430080292,
        "@url": "https://www.openstreetmap.org/node/430080292",
        "ele": "872",
        "name": "Černá studnice",
        "name:de": "Schwarzbrunnberg",
        "natural": "peak",
        "ref": "4.2",
        "source": "cs.wikipedia.org;ČÚZK",
        "wikidata": "Q339296",
        "wikipedia": "cs:Černá studnice"
      }
    },
    {
      "type": "Feature",
      "geometry": {
        "type": "Point",
        "coordinates": [
          15.9492707,
          49.6518391
        ]
      },
      "properties": {
        "@type": "node",
        "@id": 432799836,
        "@url": "https://www.openstreetmap.org/node/432799836",
        "ele": "800",
        "name": "Tisůvka",
        "natural": "peak",
        "source": "ČÚZK",
        "wikidata": "Q12059058",
        "wikipedia": "cs:Tisůvka"
      }
    },
    {
      "type": "Feature",
      "geometry": {
        "type": "Point",
        "coordinates": [
          15.9480994,
          49.666544
        ]
      },
      "properties": {
        "@type": "node",
        "@id": 432799837,
        "@url": "https://www.openstreetmap.org/node/432799837",
        "ele": "806",
        "name": "Šindelný vrch",
        "natural": "peak",
        "source": "ČÚZK",
        "wikidata": "Q10401113",
        "wikipedia": "cs:Šindelný vrch"
      }
    },
    {
      "type": "Feature",
      "geometry": {
        "type": "Point",
        "coordinates": [
          15.9918274,
          49.6569931
        ]
      },
      "properties": {
        "@type": "node",
        "@id": 432799838,
        "@url": "https://www.openstreetmap.org/node/432799838",
        "ele": "809.8",
        "name": "Žákova hora",
        "natural": "peak",
        "source": "survey,gps",
        "wikidata": "Q10296549",
        "wikipedia": "cs:Žákova hora"
      }
    },
    {
      "type": "Feature",
      "geometry": {
        "type": "Point",
        "coordinates": [
          16.0218265,
          49.6428711
        ]
      },
      "properties": {
        "@type": "node",
        "@id": 432799839,
        "@url": "https://www.openstreetmap.org/node/432799839",
        "ele": "823",
        "name": "Křivý javor",
        "natural": "peak",
        "source": "ČÚZK",
        "wikidata": "Q12032282",
        "wikipedia": "cs:Křivý javor"
      }
    },
    {
      "type": "Feature",
      "geometry": {
        "type": "Point",
        "coordinates": [
          16.0528532,
          49.6569438
        ]
      },
      "properties": {
        "@type": "node",
        "@id": 432814121,
        "@url": "https://www.openstreetmap.org/node/432814121",
        "ele": "829.7",
        "name": "Křovina",
        "natural": "peak",
        "wikidata": "Q12032306",
        "wikipedia": "cs:Křovina"
      }
    },
    {
      "type": "Feature",
      "geometry": {
        "type": "Point",
        "coordinates": [
          13.6416401,
          50.6470762
        ]
      },
      "properties": {
        "@type": "node",
        "@id": 437555642,
        "@url": "https://www.openstreetmap.org/node/437555642",
        "ele": "890",
        "name": "Vlči Hora",
        "name:de": "Wolfsberg",
        "natural": "peak",
        "wikidata": "Q23824326",
        "wikipedia": "cs:Vlčí hora (Krušné hory)"
      }
    },
    {
      "type": "Feature",
      "geometry": {
        "type": "Point",
        "coordinates": [
          18.6901851,
          49.5005351
        ]
      },
      "properties": {
        "@type": "node",
        "@id": 440772232,
        "@url": "https://www.openstreetmap.org/node/440772232",
        "bicycle": "yes",
        "ele": "842",
        "information": "guidepost",
        "name": "Medvedia skala",
        "tourism": "information"
      }
    },
    {
      "type": "Feature",
      "geometry": {
        "type": "Point",
        "coordinates": [
          18.4124677,
          49.3989995
        ]
      },
      "properties": {
        "@type": "node",
        "@id": 441251773,
        "@url": "https://www.openstreetmap.org/node/441251773",
        "ele": "859",
        "hiking": "yes",
        "information": "guidepost",
        "name": "Bumbálka-chata",
        "ref": "2673/7",
        "tourism": "information"
      }
    },
    {
      "type": "Feature",
      "geometry": {
        "type": "Point",
        "coordinates": [
          14.2779675,
          48.5750075
        ]
      },
      "properties": {
        "@type": "node",
        "@id": 444639701,
        "@url": "https://www.openstreetmap.org/node/444639701",
        "ele": "819",
        "hiking": "yes",
        "information": "guidepost",
        "name": "Hraniční potok (CZ/A)",
        "ref": "CK422",
        "tourism": "information"
      }
    },
    {
      "type": "Feature",
      "geometry": {
        "type": "Point",
        "coordinates": [
          13.0556365,
          50.4422402
        ]
      },
      "properties": {
        "@type": "node",
        "@id": 451137322,
        "@url": "https://www.openstreetmap.org/node/451137322",
        "ele": "805.94"
      }
    },
    {
      "type": "Feature",
      "geometry": {
        "type": "Point",
        "coordinates": [
          13.8812236,
          48.9856802
        ]
      },
      "properties": {
        "@type": "node",
        "@id": 458234020,
        "@url": "https://www.openstreetmap.org/node/458234020",
        "ele": "830",
        "hiking": "yes",
        "information": "guidepost",
        "name": "Milešice",
        "operator": "cz:KČT",
        "ref": "VO506",
        "tourism": "information"
      }
    },
    {
      "type": "Feature",
      "geometry": {
        "type": "Point",
        "coordinates": [
          15.3395146,
          49.2209987
        ]
      },
      "properties": {
        "@type": "node",
        "@id": 462104039,
        "@url": "https://www.openstreetmap.org/node/462104039",
        "ele": "837",
        "importance": "1.0",
        "name": "Javořice",
        "name:cs": "Javořice",
        "name:de": "Jaborschützberg",
        "natural": "peak",
        "prominence": "302",
        "source": "survey",
        "wikidata": "Q752287",
        "wikipedia": "cs:Javořice"
      }
    },
    {
      "type": "Feature",
      "geometry": {
        "type": "Point",
        "coordinates": [
          15.340276,
          49.2218871
        ]
      },
      "properties": {
        "@type": "node",
        "@id": 462106615,
        "@url": "https://www.openstreetmap.org/node/462106615",
        "ele": "837",
        "hiking": "yes",
        "information": "guidepost",
        "name": "Javořice",
        "operator": "cz:KČT",
        "ref": "TE108",
        "source": "survey",
        "tourism": "information"
      }
    },
    {
      "type": "Feature",
      "geometry": {
        "type": "Point",
        "coordinates": [
          15.7273032,
          50.6880223
        ]
      },
      "properties": {
        "@type": "node",
        "@id": 462698593,
        "@url": "https://www.openstreetmap.org/node/462698593",
        "ele": "825",
        "hiking": "yes",
        "information": "guidepost",
        "name": "Pec pod Snežkou - Javor (vlek)",
        "operator": "cz:KČT",
        "ref": "TK316",
        "source": "gps",
        "tourism": "information"
      }
    },
    {
      "type": "Feature",
      "geometry": {
        "type": "Point",
        "coordinates": [
          14.2749218,
          48.6119347
        ]
      },
      "properties": {
        "@type": "node",
        "@id": 470184191,
        "@url": "https://www.openstreetmap.org/node/470184191",
        "ele": "899",
        "name": "Vyklestilka",
        "natural": "peak",
        "source": "ČÚZK"
      }
    },
    {
      "type": "Feature",
      "geometry": {
        "type": "Point",
        "coordinates": [
          17.648056,
          48.854218
        ]
      },
      "properties": {
        "@type": "node",
        "@id": 473689478,
        "@url": "https://www.openstreetmap.org/node/473689478",
        "ele": "843",
        "information": "guidepost",
        "name": "Mičovka",
        "operator": "KST",
        "ref": "none",
        "ski": "yes",
        "tourism": "information"
      }
    },
    {
      "type": "Feature",
      "geometry": {
        "type": "Point",
        "coordinates": [
          17.6205475,
          48.8467265
        ]
      },
      "properties": {
        "@type": "node",
        "@id": 473689498,
        "@url": "https://www.openstreetmap.org/node/473689498",
        "ele": "819",
        "hiking": "yes",
        "information": "guidepost",
        "name": "Čupec",
        "operator": "KST",
        "tourism": "information"
      }
    },
    {
      "type": "Feature",
      "geometry": {
        "type": "Point",
        "coordinates": [
          14.1080643,
          48.6102394
        ]
      },
      "properties": {
        "@type": "node",
        "@id": 476265979,
        "@url": "https://www.openstreetmap.org/node/476265979",
        "ele": "827",
        "name": "Pasečná",
        "name:cs": "Pasečná",
        "name:de": "Reiterschlag",
        "place": "hamlet",
        "start_date": "before 1379",
        "wikidata": "Q19298248",
        "wikipedia": "cs:Pasečná"
      }
    },
    {
      "type": "Feature",
      "geometry": {
        "type": "Point",
        "coordinates": [
          17.1567799,
          50.1040622
        ]
      },
      "properties": {
        "@type": "node",
        "@id": 512083568,
        "@url": "https://www.openstreetmap.org/node/512083568",
        "ele": "800",
        "hiking": "yes",
        "information": "guidepost",
        "name": "Pod Hřbety",
        "operator": "cz:KČT",
        "ref": "SU505",
        "ski": "yes",
        "tourism": "information"
      }
    },
    {
      "type": "Feature",
      "geometry": {
        "type": "Point",
        "coordinates": [
          14.9763442,
          50.7372686
        ]
      },
      "properties": {
        "@type": "node",
        "@id": 518769382,
        "@url": "https://www.openstreetmap.org/node/518769382",
        "ele": "825",
        "hiking": "yes",
        "information": "guidepost",
        "name": "Kamenná vrata",
        "operator": "cz:KČT",
        "ref": "LB916",
        "tourism": "information"
      }
    },
    {
      "type": "Feature",
      "geometry": {
        "type": "Point",
        "coordinates": [
          15.4748021,
          50.7448753
        ]
      },
      "properties": {
        "@type": "node",
        "@id": 565684937,
        "@url": "https://www.openstreetmap.org/node/565684937",
        "ele": "862",
        "name": "Kostelní vrch",
        "name:de": "Kirchberg",
        "natural": "peak",
        "source": "ČÚZK"
      }
    },
    {
      "type": "Feature",
      "geometry": {
        "type": "Point",
        "coordinates": [
          15.3974091,
          50.7305672
        ]
      },
      "properties": {
        "@type": "node",
        "@id": 566158876,
        "@url": "https://www.openstreetmap.org/node/566158876",
        "ele": "802",
        "name": "Mechovice",
        "natural": "peak",
        "source": "ČÚZK"
      }
    },
    {
      "type": "Feature",
      "geometry": {
        "type": "Point",
        "coordinates": [
          15.3752048,
          50.7238595
        ]
      },
      "properties": {
        "@type": "node",
        "@id": 566161122,
        "@url": "https://www.openstreetmap.org/node/566161122",
        "ele": "822",
        "name": "Javorník",
        "natural": "peak",
        "source": "ČÚZK"
      }
    },
    {
      "type": "Feature",
      "geometry": {
        "type": "Point",
        "coordinates": [
          15.3645311,
          50.7287114
        ]
      },
      "properties": {
        "@type": "node",
        "@id": 566161172,
        "@url": "https://www.openstreetmap.org/node/566161172",
        "ele": "817",
        "name": "Rejdický kopec",
        "name:de": "Reiditz Berg",
        "natural": "peak",
        "source": "ČÚZK"
      }
    },
    {
      "type": "Feature",
      "geometry": {
        "type": "Point",
        "coordinates": [
          14.6268476,
          48.6417588
        ]
      },
      "properties": {
        "@type": "node",
        "@id": 566471701,
        "@url": "https://www.openstreetmap.org/node/566471701",
        "ele": "860.04"
      }
    },
    {
      "type": "Feature",
      "geometry": {
        "type": "Point",
        "coordinates": [
          14.5929274,
          48.623261
        ]
      },
      "properties": {
        "@type": "node",
        "@id": 566471990,
        "@url": "https://www.openstreetmap.org/node/566471990",
        "ele": "800.92"
      }
    },
    {
      "type": "Feature",
      "geometry": {
        "type": "Point",
        "coordinates": [
          14.5933786,
          48.6236609
        ]
      },
      "properties": {
        "@type": "node",
        "@id": 566471992,
        "@url": "https://www.openstreetmap.org/node/566471992",
        "ele": "800.92"
      }
    },
    {
      "type": "Feature",
      "geometry": {
        "type": "Point",
        "coordinates": [
          14.5938007,
          48.6239306
        ]
      },
      "properties": {
        "@type": "node",
        "@id": 566471993,
        "@url": "https://www.openstreetmap.org/node/566471993",
        "ele": "800.92"
      }
    },
    {
      "type": "Feature",
      "geometry": {
        "type": "Point",
        "coordinates": [
          14.595048,
          48.625466
        ]
      },
      "properties": {
        "@type": "node",
        "@id": 566472008,
        "@url": "https://www.openstreetmap.org/node/566472008",
        "ele": "800.92"
      }
    },
    {
      "type": "Feature",
      "geometry": {
        "type": "Point",
        "coordinates": [
          14.5950373,
          48.6256722
        ]
      },
      "properties": {
        "@type": "node",
        "@id": 566472010,
        "@url": "https://www.openstreetmap.org/node/566472010",
        "ele": "803.32"
      }
    },
    {
      "type": "Feature",
      "geometry": {
        "type": "Point",
        "coordinates": [
          14.5950146,
          48.625776
        ]
      },
      "properties": {
        "@type": "node",
        "@id": 566472012,
        "@url": "https://www.openstreetmap.org/node/566472012",
        "ele": "804.76"
      }
    },
    {
      "type": "Feature",
      "geometry": {
        "type": "Point",
        "coordinates": [
          14.5949434,
          48.6260466
        ]
      },
      "properties": {
        "@type": "node",
        "@id": 566472013,
        "@url": "https://www.openstreetmap.org/node/566472013",
        "ele": "808.13"
      }
    },
    {
      "type": "Feature",
      "geometry": {
        "type": "Point",
        "coordinates": [
          14.594747,
          48.6265175
        ]
      },
      "properties": {
        "@type": "node",
        "@id": 566472014,
        "@url": "https://www.openstreetmap.org/node/566472014",
        "ele": "813.41"
      }
    },
    {
      "type": "Feature",
      "geometry": {
        "type": "Point",
        "coordinates": [
          14.594644,
          48.6270905
        ]
      },
      "properties": {
        "@type": "node",
        "@id": 566472015,
        "@url": "https://www.openstreetmap.org/node/566472015",
        "ele": "816.3"
      }
    },
    {
      "type": "Feature",
      "geometry": {
        "type": "Point",
        "coordinates": [
          14.5945224,
          48.627828
        ]
      },
      "properties": {
        "@type": "node",
        "@id": 566472017,
        "@url": "https://www.openstreetmap.org/node/566472017",
        "ele": "817.74"
      }
    },
    {
      "type": "Feature",
      "geometry": {
        "type": "Point",
        "coordinates": [
          14.5943865,
          48.628191
        ]
      },
      "properties": {
        "@type": "node",
        "@id": 566472018,
        "@url": "https://www.openstreetmap.org/node/566472018",
        "ele": "817.74"
      }
    },
    {
      "type": "Feature",
      "geometry": {
        "type": "Point",
        "coordinates": [
          14.5937513,
          48.6288491
        ]
      },
      "properties": {
        "@type": "node",
        "@id": 566472021,
        "@url": "https://www.openstreetmap.org/node/566472021",
        "ele": "820.62"
      }
    },
    {
      "type": "Feature",
      "geometry": {
        "type": "Point",
        "coordinates": [
          14.5933222,
          48.6293937
        ]
      },
      "properties": {
        "@type": "node",
        "@id": 566472024,
        "@url": "https://www.openstreetmap.org/node/566472024",
        "ele": "822.55"
      }
    },
    {
      "type": "Feature",
      "geometry": {
        "type": "Point",
        "coordinates": [
          14.5931591,
          48.6296773
        ]
      },
      "properties": {
        "@type": "node",
        "@id": 566472028,
        "@url": "https://www.openstreetmap.org/node/566472028",
        "ele": "822.06"
      }
    },
    {
      "type": "Feature",
      "geometry": {
        "type": "Point",
        "coordinates": [
          14.5932106,
          48.6300914
        ]
      },
      "properties": {
        "@type": "node",
        "@id": 566472032,
        "@url": "https://www.openstreetmap.org/node/566472032",
        "ele": "822.55"
      }
    },
    {
      "type": "Feature",
      "geometry": {
        "type": "Point",
        "coordinates": [
          14.5943092,
          48.6305112
        ]
      },
      "properties": {
        "@type": "node",
        "@id": 566472033,
        "@url": "https://www.openstreetmap.org/node/566472033",
        "ele": "820.62"
      }
    },
    {
      "type": "Feature",
      "geometry": {
        "type": "Point",
        "coordinates": [
          14.5952188,
          48.6307293
        ]
      },
      "properties": {
        "@type": "node",
        "@id": 566472034,
        "@url": "https://www.openstreetmap.org/node/566472034",
        "ele": "819.66"
      }
    },
    {
      "type": "Feature",
      "geometry": {
        "type": "Point",
        "coordinates": [
          14.5960658,
          48.6310844
        ]
      },
      "properties": {
        "@type": "node",
        "@id": 566472035,
        "@url": "https://www.openstreetmap.org/node/566472035",
        "ele": "818.7"
      }
    },
    {
      "type": "Feature",
      "geometry": {
        "type": "Point",
        "coordinates": [
          14.5977339,
          48.6318783
        ]
      },
      "properties": {
        "@type": "node",
        "@id": 566472036,
        "@url": "https://www.openstreetmap.org/node/566472036",
        "ele": "819.18"
      }
    },
    {
      "type": "Feature",
      "geometry": {
        "type": "Point",
        "coordinates": [
          14.5984548,
          48.6323208
        ]
      },
      "properties": {
        "@type": "node",
        "@id": 566472038,
        "@url": "https://www.openstreetmap.org/node/566472038",
        "ele": "816.3"
      }
    },
    {
      "type": "Feature",
      "geometry": {
        "type": "Point",
        "coordinates": [
          14.5989612,
          48.6327178
        ]
      },
      "properties": {
        "@type": "node",
        "@id": 566472041,
        "@url": "https://www.openstreetmap.org/node/566472041",
        "ele": "814.37"
      }
    },
    {
      "type": "Feature",
      "geometry": {
        "type": "Point",
        "coordinates": [
          14.5995792,
          48.6332794
        ]
      },
      "properties": {
        "@type": "node",
        "@id": 566472046,
        "@url": "https://www.openstreetmap.org/node/566472046",
        "ele": "811.49"
      }
    },
    {
      "type": "Feature",
      "geometry": {
        "type": "Point",
        "coordinates": [
          14.5997337,
          48.6334496
        ]
      },
      "properties": {
        "@type": "node",
        "@id": 566472047,
        "@url": "https://www.openstreetmap.org/node/566472047",
        "ele": "810.05"
      }
    },
    {
      "type": "Feature",
      "geometry": {
        "type": "Point",
        "coordinates": [
          14.6267618,
          48.6417078
        ]
      },
      "properties": {
        "@type": "node",
        "@id": 566472135,
        "@url": "https://www.openstreetmap.org/node/566472135",
        "ele": "861.96"
      }
    },
    {
      "type": "Feature",
      "geometry": {
        "type": "Point",
        "coordinates": [
          14.6266331,
          48.641583
        ]
      },
      "properties": {
        "@type": "node",
        "@id": 566472146,
        "@url": "https://www.openstreetmap.org/node/566472146",
        "ele": "861.96"
      }
    },
    {
      "type": "Feature",
      "geometry": {
        "type": "Point",
        "coordinates": [
          14.6265043,
          48.6413505
        ]
      },
      "properties": {
        "@type": "node",
        "@id": 566472152,
        "@url": "https://www.openstreetmap.org/node/566472152",
        "ele": "861.0"
      }
    },
    {
      "type": "Feature",
      "geometry": {
        "type": "Point",
        "coordinates": [
          14.6267103,
          48.641259
        ]
      },
      "properties": {
        "@type": "node",
        "@id": 566472156,
        "@url": "https://www.openstreetmap.org/node/566472156",
        "ele": "861.0"
      }
    },
    {
      "type": "Feature",
      "geometry": {
        "type": "Point",
        "coordinates": [
          14.6268648,
          48.6412824
        ]
      },
      "properties": {
        "@type": "node",
        "@id": 566472159,
        "@url": "https://www.openstreetmap.org/node/566472159",
        "ele": "861.0"
      }
    },
    {
      "type": "Feature",
      "geometry": {
        "type": "Point",
        "coordinates": [
          14.6272081,
          48.6413335
        ]
      },
      "properties": {
        "@type": "node",
        "@id": 566472165,
        "@url": "https://www.openstreetmap.org/node/566472165",
        "ele": "864.36"
      }
    },
    {
      "type": "Feature",
      "geometry": {
        "type": "Point",
        "coordinates": [
          14.6276115,
          48.6414802
        ]
      },
      "properties": {
        "@type": "node",
        "@id": 566472170,
        "@url": "https://www.openstreetmap.org/node/566472170",
        "ele": "864.36"
      }
    },
    {
      "type": "Feature",
      "geometry": {
        "type": "Point",
        "coordinates": [
          14.6280407,
          48.6415433
        ]
      },
      "properties": {
        "@type": "node",
        "@id": 566472179,
        "@url": "https://www.openstreetmap.org/node/566472179",
        "ele": "863.88"
      }
    },
    {
      "type": "Feature",
      "geometry": {
        "type": "Point",
        "coordinates": [
          14.6285385,
          48.641583
        ]
      },
      "properties": {
        "@type": "node",
        "@id": 566472186,
        "@url": "https://www.openstreetmap.org/node/566472186",
        "ele": "859.08"
      }
    },
    {
      "type": "Feature",
      "geometry": {
        "type": "Point",
        "coordinates": [
          14.6289869,
          48.6414334
        ]
      },
      "properties": {
        "@type": "node",
        "@id": 566472189,
        "@url": "https://www.openstreetmap.org/node/566472189",
        "ele": "863.88"
      }
    },
    {
      "type": "Feature",
      "geometry": {
        "type": "Point",
        "coordinates": [
          14.6305212,
          48.640375
        ]
      },
      "properties": {
        "@type": "node",
        "@id": 566472203,
        "@url": "https://www.openstreetmap.org/node/566472203",
        "ele": "864.84"
      }
    },
    {
      "type": "Feature",
      "geometry": {
        "type": "Point",
        "coordinates": [
          14.6314739,
          48.6400347
        ]
      },
      "properties": {
        "@type": "node",
        "@id": 566472208,
        "@url": "https://www.openstreetmap.org/node/566472208",
        "ele": "865.32"
      }
    },
    {
      "type": "Feature",
      "geometry": {
        "type": "Point",
        "coordinates": [
          14.6331047,
          48.6387189
        ]
      },
      "properties": {
        "@type": "node",
        "@id": 566472210,
        "@url": "https://www.openstreetmap.org/node/566472210",
        "ele": "863.4"
      }
    },
    {
      "type": "Feature",
      "geometry": {
        "type": "Point",
        "coordinates": [
          14.6335939,
          48.6379929
        ]
      },
      "properties": {
        "@type": "node",
        "@id": 566472212,
        "@url": "https://www.openstreetmap.org/node/566472212",
        "ele": "864.36"
      }
    },
    {
      "type": "Feature",
      "geometry": {
        "type": "Point",
        "coordinates": [
          14.6337055,
          48.6378171
        ]
      },
      "properties": {
        "@type": "node",
        "@id": 566472217,
        "@url": "https://www.openstreetmap.org/node/566472217",
        "ele": "866.29"
      }
    },
    {
      "type": "Feature",
      "geometry": {
        "type": "Point",
        "coordinates": [
          14.6343492,
          48.6373066
        ]
      },
      "properties": {
        "@type": "node",
        "@id": 566472218,
        "@url": "https://www.openstreetmap.org/node/566472218",
        "ele": "871.57"
      }
    },
    {
      "type": "Feature",
      "geometry": {
        "type": "Point",
        "coordinates": [
          14.6347441,
          48.637006
        ]
      },
      "properties": {
        "@type": "node",
        "@id": 566472220,
        "@url": "https://www.openstreetmap.org/node/566472220",
        "ele": "873.01"
      }
    },
    {
      "type": "Feature",
      "geometry": {
        "type": "Point",
        "coordinates": [
          14.6350176,
          48.6366341
        ]
      },
      "properties": {
        "@type": "node",
        "@id": 566472222,
        "@url": "https://www.openstreetmap.org/node/566472222",
        "ele": "874.46"
      }
    },
    {
      "type": "Feature",
      "geometry": {
        "type": "Point",
        "coordinates": [
          14.6351966,
          48.6362706
        ]
      },
      "properties": {
        "@type": "node",
        "@id": 566472224,
        "@url": "https://www.openstreetmap.org/node/566472224",
        "ele": "873.98"
      }
    },
    {
      "type": "Feature",
      "geometry": {
        "type": "Point",
        "coordinates": [
          14.6352764,
          48.6360888
        ]
      },
      "properties": {
        "@type": "node",
        "@id": 566472226,
        "@url": "https://www.openstreetmap.org/node/566472226",
        "ele": "873.01"
      }
    },
    {
      "type": "Feature",
      "geometry": {
        "type": "Point",
        "coordinates": [
          14.635611,
          48.635656
        ]
      },
      "properties": {
        "@type": "node",
        "@id": 566472228,
        "@url": "https://www.openstreetmap.org/node/566472228",
        "ele": "871.09"
      }
    },
    {
      "type": "Feature",
      "geometry": {
        "type": "Point",
        "coordinates": [
          14.6357569,
          48.635571
        ]
      },
      "properties": {
        "@type": "node",
        "@id": 566472229,
        "@url": "https://www.openstreetmap.org/node/566472229",
        "ele": "870.61"
      }
    },
    {
      "type": "Feature",
      "geometry": {
        "type": "Point",
        "coordinates": [
          14.6369156,
          48.6351512
        ]
      },
      "properties": {
        "@type": "node",
        "@id": 566472230,
        "@url": "https://www.openstreetmap.org/node/566472230",
        "ele": "868.21"
      }
    },
    {
      "type": "Feature",
      "geometry": {
        "type": "Point",
        "coordinates": [
          14.6373465,
          48.6350712
        ]
      },
      "properties": {
        "@type": "node",
        "@id": 566472231,
        "@url": "https://www.openstreetmap.org/node/566472231",
        "ele": "867.73"
      }
    },
    {
      "type": "Feature",
      "geometry": {
        "type": "Point",
        "coordinates": [
          14.6379799,
          48.6350548
        ]
      },
      "properties": {
        "@type": "node",
        "@id": 566472232,
        "@url": "https://www.openstreetmap.org/node/566472232",
        "ele": "868.69"
      }
    },
    {
      "type": "Feature",
      "geometry": {
        "type": "Point",
        "coordinates": [
          14.6384262,
          48.6349357
        ]
      },
      "properties": {
        "@type": "node",
        "@id": 566472233,
        "@url": "https://www.openstreetmap.org/node/566472233",
        "ele": "871.09"
      }
    },
    {
      "type": "Feature",
      "geometry": {
        "type": "Point",
        "coordinates": [
          14.6386322,
          48.6348279
        ]
      },
      "properties": {
        "@type": "node",
        "@id": 566472234,
        "@url": "https://www.openstreetmap.org/node/566472234",
        "ele": "872.53"
      }
    },
    {
      "type": "Feature",
      "geometry": {
        "type": "Point",
        "coordinates": [
          14.6406149,
          48.6327802
        ]
      },
      "properties": {
        "@type": "node",
        "@id": 566472237,
        "@url": "https://www.openstreetmap.org/node/566472237",
        "ele": "874.46"
      }
    },
    {
      "type": "Feature",
      "geometry": {
        "type": "Point",
        "coordinates": [
          14.6412929,
          48.6322584
        ]
      },
      "properties": {
        "@type": "node",
        "@id": 566472238,
        "@url": "https://www.openstreetmap.org/node/566472238",
        "ele": "874.94"
      }
    },
    {
      "type": "Feature",
      "geometry": {
        "type": "Point",
        "coordinates": [
          14.6450632,
          48.631719
        ]
      },
      "properties": {
        "@type": "node",
        "@id": 566472244,
        "@url": "https://www.openstreetmap.org/node/566472244",
        "ele": "874.46"
      }
    },
    {
      "type": "Feature",
      "geometry": {
        "type": "Point",
        "coordinates": [
          14.6456076,
          48.6316456
        ]
      },
      "properties": {
        "@type": "node",
        "@id": 566472245,
        "@url": "https://www.openstreetmap.org/node/566472245",
        "ele": "876.86"
      }
    },
    {
      "type": "Feature",
      "geometry": {
        "type": "Point",
        "coordinates": [
          14.6460643,
          48.6312492
        ]
      },
      "properties": {
        "@type": "node",
        "@id": 566472247,
        "@url": "https://www.openstreetmap.org/node/566472247",
        "ele": "873.98"
      }
    },
    {
      "type": "Feature",
      "geometry": {
        "type": "Point",
        "coordinates": [
          14.6459273,
          48.6310024
        ]
      },
      "properties": {
        "@type": "node",
        "@id": 566472248,
        "@url": "https://www.openstreetmap.org/node/566472248",
        "ele": "873.98"
      }
    },
    {
      "type": "Feature",
      "geometry": {
        "type": "Point",
        "coordinates": [
          14.6458935,
          48.6301482
        ]
      },
      "properties": {
        "@type": "node",
        "@id": 566472249,
        "@url": "https://www.openstreetmap.org/node/566472249",
        "ele": "874.94"
      }
    },
    {
      "type": "Feature",
      "geometry": {
        "type": "Point",
        "coordinates": [
          14.6460995,
          48.6296376
        ]
      },
      "properties": {
        "@type": "node",
        "@id": 566472250,
        "@url": "https://www.openstreetmap.org/node/566472250",
        "ele": "881.19"
      }
    },
    {
      "type": "Feature",
      "geometry": {
        "type": "Point",
        "coordinates": [
          14.6461595,
          48.6290987
        ]
      },
      "properties": {
        "@type": "node",
        "@id": 566472251,
        "@url": "https://www.openstreetmap.org/node/566472251",
        "ele": "882.15"
      }
    },
    {
      "type": "Feature",
      "geometry": {
        "type": "Point",
        "coordinates": [
          14.6471895,
          48.6280492
        ]
      },
      "properties": {
        "@type": "node",
        "@id": 566472253,
        "@url": "https://www.openstreetmap.org/node/566472253",
        "ele": "880.22"
      }
    },
    {
      "type": "Feature",
      "geometry": {
        "type": "Point",
        "coordinates": [
          14.6479019,
          48.6274592
        ]
      },
      "properties": {
        "@type": "node",
        "@id": 566472254,
        "@url": "https://www.openstreetmap.org/node/566472254",
        "ele": "888.4"
      }
    },
    {
      "type": "Feature",
      "geometry": {
        "type": "Point",
        "coordinates": [
          14.6488117,
          48.6266083
        ]
      },
      "properties": {
        "@type": "node",
        "@id": 566472256,
        "@url": "https://www.openstreetmap.org/node/566472256",
        "ele": "883.11"
      }
    },
    {
      "type": "Feature",
      "geometry": {
        "type": "Point",
        "coordinates": [
          14.6485295,
          48.6244145
        ]
      },
      "properties": {
        "@type": "node",
        "@id": 566472266,
        "@url": "https://www.openstreetmap.org/node/566472266",
        "ele": "888.88"
      }
    },
    {
      "type": "Feature",
      "geometry": {
        "type": "Point",
        "coordinates": [
          14.6501421,
          48.6233518
        ]
      },
      "properties": {
        "@type": "node",
        "@id": 566472270,
        "@url": "https://www.openstreetmap.org/node/566472270",
        "ele": "892.24"
      }
    },
    {
      "type": "Feature",
      "geometry": {
        "type": "Point",
        "coordinates": [
          14.6503481,
          48.6230171
        ]
      },
      "properties": {
        "@type": "node",
        "@id": 566472271,
        "@url": "https://www.openstreetmap.org/node/566472271",
        "ele": "893.2"
      }
    },
    {
      "type": "Feature",
      "geometry": {
        "type": "Point",
        "coordinates": [
          14.649773,
          48.6221036
        ]
      },
      "properties": {
        "@type": "node",
        "@id": 566472273,
        "@url": "https://www.openstreetmap.org/node/566472273",
        "ele": "896.09"
      }
    },
    {
      "type": "Feature",
      "geometry": {
        "type": "Point",
        "coordinates": [
          14.6721491,
          48.6144607
        ]
      },
      "properties": {
        "@type": "node",
        "@id": 566472327,
        "@url": "https://www.openstreetmap.org/node/566472327",
        "ele": "896.09"
      }
    },
    {
      "type": "Feature",
      "geometry": {
        "type": "Point",
        "coordinates": [
          14.6738485,
          48.6145061
        ]
      },
      "properties": {
        "@type": "node",
        "@id": 566472328,
        "@url": "https://www.openstreetmap.org/node/566472328",
        "ele": "893.2"
      }
    },
    {
      "type": "Feature",
      "geometry": {
        "type": "Point",
        "coordinates": [
          14.6742638,
          48.6147517
        ]
      },
      "properties": {
        "@type": "node",
        "@id": 566472329,
        "@url": "https://www.openstreetmap.org/node/566472329",
        "ele": "892.24"
      }
    },
    {
      "type": "Feature",
      "geometry": {
        "type": "Point",
        "coordinates": [
          14.6744477,
          48.615055
        ]
      },
      "properties": {
        "@type": "node",
        "@id": 566472330,
        "@url": "https://www.openstreetmap.org/node/566472330",
        "ele": "890.8"
      }
    },
    {
      "type": "Feature",
      "geometry": {
        "type": "Point",
        "coordinates": [
          14.6745001,
          48.6151134
        ]
      },
      "properties": {
        "@type": "node",
        "@id": 566472331,
        "@url": "https://www.openstreetmap.org/node/566472331",
        "ele": "890.8"
      }
    },
    {
      "type": "Feature",
      "geometry": {
        "type": "Point",
        "coordinates": [
          14.6949236,
          48.6404515
        ]
      },
      "properties": {
        "@type": "node",
        "@id": 566562624,
        "@url": "https://www.openstreetmap.org/node/566562624",
        "ele": "899.93"
      }
    },
    {
      "type": "Feature",
      "geometry": {
        "type": "Point",
        "coordinates": [
          14.6951821,
          48.6405003
        ]
      },
      "properties": {
        "@type": "node",
        "@id": 566562625,
        "@url": "https://www.openstreetmap.org/node/566562625",
        "ele": "897.05"
      }
    },
    {
      "type": "Feature",
      "geometry": {
        "type": "Point",
        "coordinates": [
          14.695336,
          48.6405453
        ]
      },
      "properties": {
        "@type": "node",
        "@id": 566562626,
        "@url": "https://www.openstreetmap.org/node/566562626",
        "ele": "895.12"
      }
    },
    {
      "type": "Feature",
      "geometry": {
        "type": "Point",
        "coordinates": [
          14.695477,
          48.640664
        ]
      },
      "properties": {
        "@type": "node",
        "@id": 566562627,
        "@url": "https://www.openstreetmap.org/node/566562627",
        "ele": "890.8"
      }
    },
    {
      "type": "Feature",
      "geometry": {
        "type": "Point",
        "coordinates": [
          14.6954939,
          48.640695
        ]
      },
      "properties": {
        "@type": "node",
        "@id": 566562628,
        "@url": "https://www.openstreetmap.org/node/566562628",
        "ele": "890.8"
      }
    },
    {
      "type": "Feature",
      "geometry": {
        "type": "Point",
        "coordinates": [
          14.6954437,
          48.640883
        ]
      },
      "properties": {
        "@type": "node",
        "@id": 566562629,
        "@url": "https://www.openstreetmap.org/node/566562629",
        "ele": "887.91"
      }
    },
    {
      "type": "Feature",
      "geometry": {
        "type": "Point",
        "coordinates": [
          14.6952105,
          48.6413025
        ]
      },
      "properties": {
        "@type": "node",
        "@id": 566562630,
        "@url": "https://www.openstreetmap.org/node/566562630",
        "ele": "880.71"
      }
    },
    {
      "type": "Feature",
      "geometry": {
        "type": "Point",
        "coordinates": [
          14.6952163,
          48.6413593
        ]
      },
      "properties": {
        "@type": "node",
        "@id": 566562631,
        "@url": "https://www.openstreetmap.org/node/566562631",
        "ele": "880.71"
      }
    },
    {
      "type": "Feature",
      "geometry": {
        "type": "Point",
        "coordinates": [
          14.6952286,
          48.6414802
        ]
      },
      "properties": {
        "@type": "node",
        "@id": 566562632,
        "@url": "https://www.openstreetmap.org/node/566562632",
        "ele": "879.74"
      }
    },
    {
      "type": "Feature",
      "geometry": {
        "type": "Point",
        "coordinates": [
          14.6954304,
          48.6419884
        ]
      },
      "properties": {
        "@type": "node",
        "@id": 566562633,
        "@url": "https://www.openstreetmap.org/node/566562633",
        "ele": "877.34"
      }
    },
    {
      "type": "Feature",
      "geometry": {
        "type": "Point",
        "coordinates": [
          14.6954736,
          48.6424776
        ]
      },
      "properties": {
        "@type": "node",
        "@id": 566562634,
        "@url": "https://www.openstreetmap.org/node/566562634",
        "ele": "873.5"
      }
    },
    {
      "type": "Feature",
      "geometry": {
        "type": "Point",
        "coordinates": [
          14.6954126,
          48.6426528
        ]
      },
      "properties": {
        "@type": "node",
        "@id": 566562635,
        "@url": "https://www.openstreetmap.org/node/566562635",
        "ele": "872.05"
      }
    },
    {
      "type": "Feature",
      "geometry": {
        "type": "Point",
        "coordinates": [
          14.6953015,
          48.6429116
        ]
      },
      "properties": {
        "@type": "node",
        "@id": 566562636,
        "@url": "https://www.openstreetmap.org/node/566562636",
        "ele": "867.73"
      }
    },
    {
      "type": "Feature",
      "geometry": {
        "type": "Point",
        "coordinates": [
          14.6952377,
          48.64306
        ]
      },
      "properties": {
        "@type": "node",
        "@id": 566562637,
        "@url": "https://www.openstreetmap.org/node/566562637",
        "ele": "866.29"
      }
    },
    {
      "type": "Feature",
      "geometry": {
        "type": "Point",
        "coordinates": [
          14.6952326,
          48.6432116
        ]
      },
      "properties": {
        "@type": "node",
        "@id": 566562638,
        "@url": "https://www.openstreetmap.org/node/566562638",
        "ele": "865.8"
      }
    },
    {
      "type": "Feature",
      "geometry": {
        "type": "Point",
        "coordinates": [
          14.6953148,
          48.6435773
        ]
      },
      "properties": {
        "@type": "node",
        "@id": 566562639,
        "@url": "https://www.openstreetmap.org/node/566562639",
        "ele": "864.36"
      }
    },
    {
      "type": "Feature",
      "geometry": {
        "type": "Point",
        "coordinates": [
          14.6954454,
          48.6438296
        ]
      },
      "properties": {
        "@type": "node",
        "@id": 566562640,
        "@url": "https://www.openstreetmap.org/node/566562640",
        "ele": "862.92"
      }
    },
    {
      "type": "Feature",
      "geometry": {
        "type": "Point",
        "coordinates": [
          14.6956519,
          48.6441655
        ]
      },
      "properties": {
        "@type": "node",
        "@id": 566562641,
        "@url": "https://www.openstreetmap.org/node/566562641",
        "ele": "862.44"
      }
    },
    {
      "type": "Feature",
      "geometry": {
        "type": "Point",
        "coordinates": [
          14.6957121,
          48.6443184
        ]
      },
      "properties": {
        "@type": "node",
        "@id": 566562642,
        "@url": "https://www.openstreetmap.org/node/566562642",
        "ele": "860.04"
      }
    },
    {
      "type": "Feature",
      "geometry": {
        "type": "Point",
        "coordinates": [
          14.6953373,
          48.6448122
        ]
      },
      "properties": {
        "@type": "node",
        "@id": 566562644,
        "@url": "https://www.openstreetmap.org/node/566562644",
        "ele": "856.19"
      }
    },
    {
      "type": "Feature",
      "geometry": {
        "type": "Point",
        "coordinates": [
          14.6948249,
          48.6454255
        ]
      },
      "properties": {
        "@type": "node",
        "@id": 566562645,
        "@url": "https://www.openstreetmap.org/node/566562645",
        "ele": "852.35"
      }
    },
    {
      "type": "Feature",
      "geometry": {
        "type": "Point",
        "coordinates": [
          14.6947887,
          48.6455174
        ]
      },
      "properties": {
        "@type": "node",
        "@id": 566562646,
        "@url": "https://www.openstreetmap.org/node/566562646",
        "ele": "850.9"
      }
    },
    {
      "type": "Feature",
      "geometry": {
        "type": "Point",
        "coordinates": [
          14.6947571,
          48.646176
        ]
      },
      "properties": {
        "@type": "node",
        "@id": 566562647,
        "@url": "https://www.openstreetmap.org/node/566562647",
        "ele": "847.06"
      }
    },
    {
      "type": "Feature",
      "geometry": {
        "type": "Point",
        "coordinates": [
          14.6716954,
          48.6545134
        ]
      },
      "properties": {
        "@type": "node",
        "@id": 566562731,
        "@url": "https://www.openstreetmap.org/node/566562731",
        "ele": "858.59"
      }
    },
    {
      "type": "Feature",
      "geometry": {
        "type": "Point",
        "coordinates": [
          14.6001968,
          48.6340772
        ]
      },
      "properties": {
        "@type": "node",
        "@id": 566563613,
        "@url": "https://www.openstreetmap.org/node/566563613",
        "ele": "805.72"
      }
    },
    {
      "type": "Feature",
      "geometry": {
        "type": "Point",
        "coordinates": [
          14.6002571,
          48.6343359
        ]
      },
      "properties": {
        "@type": "node",
        "@id": 566563614,
        "@url": "https://www.openstreetmap.org/node/566563614",
        "ele": "805.72"
      }
    },
    {
      "type": "Feature",
      "geometry": {
        "type": "Point",
        "coordinates": [
          14.7001222,
          48.7216645
        ]
      },
      "properties": {
        "@type": "node",
        "@id": 566731594,
        "@url": "https://www.openstreetmap.org/node/566731594",
        "ele": "813.89"
      }
    },
    {
      "type": "Feature",
      "geometry": {
        "type": "Point",
        "coordinates": [
          14.7003968,
          48.7213021
        ]
      },
      "properties": {
        "@type": "node",
        "@id": 566731597,
        "@url": "https://www.openstreetmap.org/node/566731597",
        "ele": "812.93"
      }
    },
    {
      "type": "Feature",
      "geometry": {
        "type": "Point",
        "coordinates": [
          14.7008775,
          48.7209227
        ]
      },
      "properties": {
        "@type": "node",
        "@id": 566731601,
        "@url": "https://www.openstreetmap.org/node/566731601",
        "ele": "812.45"
      }
    },
    {
      "type": "Feature",
      "geometry": {
        "type": "Point",
        "coordinates": [
          14.7015384,
          48.7205207
        ]
      },
      "properties": {
        "@type": "node",
        "@id": 566731606,
        "@url": "https://www.openstreetmap.org/node/566731606",
        "ele": "813.41"
      }
    },
    {
      "type": "Feature",
      "geometry": {
        "type": "Point",
        "coordinates": [
          14.7022593,
          48.720113
        ]
      },
      "properties": {
        "@type": "node",
        "@id": 566731611,
        "@url": "https://www.openstreetmap.org/node/566731611",
        "ele": "814.85"
      }
    },
    {
      "type": "Feature",
      "geometry": {
        "type": "Point",
        "coordinates": [
          14.7027915,
          48.7199035
        ]
      },
      "properties": {
        "@type": "node",
        "@id": 566731615,
        "@url": "https://www.openstreetmap.org/node/566731615",
        "ele": "816.3"
      }
    },
    {
      "type": "Feature",
      "geometry": {
        "type": "Point",
        "coordinates": [
          14.7033226,
          48.7196438
        ]
      },
      "properties": {
        "@type": "node",
        "@id": 566731618,
        "@url": "https://www.openstreetmap.org/node/566731618",
        "ele": "817.74"
      }
    },
    {
      "type": "Feature",
      "geometry": {
        "type": "Point",
        "coordinates": [
          14.7037125,
          48.7194374
        ]
      },
      "properties": {
        "@type": "node",
        "@id": 566731619,
        "@url": "https://www.openstreetmap.org/node/566731619",
        "ele": "818.7"
      }
    },
    {
      "type": "Feature",
      "geometry": {
        "type": "Point",
        "coordinates": [
          14.7040326,
          48.7192773
        ]
      },
      "properties": {
        "@type": "node",
        "@id": 566731621,
        "@url": "https://www.openstreetmap.org/node/566731621",
        "ele": "820.62"
      }
    },
    {
      "type": "Feature",
      "geometry": {
        "type": "Point",
        "coordinates": [
          14.7044658,
          48.7191039
        ]
      },
      "properties": {
        "@type": "node",
        "@id": 566731624,
        "@url": "https://www.openstreetmap.org/node/566731624",
        "ele": "821.58"
      }
    },
    {
      "type": "Feature",
      "geometry": {
        "type": "Point",
        "coordinates": [
          14.7050364,
          48.718954
        ]
      },
      "properties": {
        "@type": "node",
        "@id": 566731628,
        "@url": "https://www.openstreetmap.org/node/566731628",
        "ele": "822.55"
      }
    },
    {
      "type": "Feature",
      "geometry": {
        "type": "Point",
        "coordinates": [
          14.7053047,
          48.7188815
        ]
      },
      "properties": {
        "@type": "node",
        "@id": 566731634,
        "@url": "https://www.openstreetmap.org/node/566731634",
        "ele": "823.03"
      }
    },
    {
      "type": "Feature",
      "geometry": {
        "type": "Point",
        "coordinates": [
          14.7055305,
          48.7188392
        ]
      },
      "properties": {
        "@type": "node",
        "@id": 566731641,
        "@url": "https://www.openstreetmap.org/node/566731641",
        "ele": "823.03"
      }
    },
    {
      "type": "Feature",
      "geometry": {
        "type": "Point",
        "coordinates": [
          14.7057011,
          48.7188106
        ]
      },
      "properties": {
        "@type": "node",
        "@id": 566731647,
        "@url": "https://www.openstreetmap.org/node/566731647",
        "ele": "823.99"
      }
    },
    {
      "type": "Feature",
      "geometry": {
        "type": "Point",
        "coordinates": [
          14.7057011,
          48.7188446
        ]
      },
      "properties": {
        "@type": "node",
        "@id": 566731663,
        "@url": "https://www.openstreetmap.org/node/566731663",
        "ele": "823.51"
      }
    },
    {
      "type": "Feature",
      "geometry": {
        "type": "Point",
        "coordinates": [
          14.7056239,
          48.7189238
        ]
      },
      "properties": {
        "@type": "node",
        "@id": 566731669,
        "@url": "https://www.openstreetmap.org/node/566731669",
        "ele": "823.99"
      }
    },
    {
      "type": "Feature",
      "geometry": {
        "type": "Point",
        "coordinates": [
          14.7054179,
          48.7190881
        ]
      },
      "properties": {
        "@type": "node",
        "@id": 566731673,
        "@url": "https://www.openstreetmap.org/node/566731673",
        "ele": "825.91"
      }
    },
    {
      "type": "Feature",
      "geometry": {
        "type": "Point",
        "coordinates": [
          14.7053664,
          48.719122
        ]
      },
      "properties": {
        "@type": "node",
        "@id": 566731677,
        "@url": "https://www.openstreetmap.org/node/566731677",
        "ele": "826.39"
      }
    },
    {
      "type": "Feature",
      "geometry": {
        "type": "Point",
        "coordinates": [
          14.7052205,
          48.7192636
        ]
      },
      "properties": {
        "@type": "node",
        "@id": 566731681,
        "@url": "https://www.openstreetmap.org/node/566731681",
        "ele": "827.35"
      }
    },
    {
      "type": "Feature",
      "geometry": {
        "type": "Point",
        "coordinates": [
          14.7050832,
          48.7193882
        ]
      },
      "properties": {
        "@type": "node",
        "@id": 566731684,
        "@url": "https://www.openstreetmap.org/node/566731684",
        "ele": "828.31"
      }
    },
    {
      "type": "Feature",
      "geometry": {
        "type": "Point",
        "coordinates": [
          14.7048772,
          48.7197676
        ]
      },
      "properties": {
        "@type": "node",
        "@id": 566731698,
        "@url": "https://www.openstreetmap.org/node/566731698",
        "ele": "832.64"
      }
    },
    {
      "type": "Feature",
      "geometry": {
        "type": "Point",
        "coordinates": [
          14.7048343,
          48.7199488
        ]
      },
      "properties": {
        "@type": "node",
        "@id": 566731709,
        "@url": "https://www.openstreetmap.org/node/566731709",
        "ele": "833.6"
      }
    },
    {
      "type": "Feature",
      "geometry": {
        "type": "Point",
        "coordinates": [
          14.7048343,
          48.7201017
        ]
      },
      "properties": {
        "@type": "node",
        "@id": 566731720,
        "@url": "https://www.openstreetmap.org/node/566731720",
        "ele": "834.56"
      }
    },
    {
      "type": "Feature",
      "geometry": {
        "type": "Point",
        "coordinates": [
          14.7049029,
          48.7202829
        ]
      },
      "properties": {
        "@type": "node",
        "@id": 566731746,
        "@url": "https://www.openstreetmap.org/node/566731746",
        "ele": "836.0"
      }
    },
    {
      "type": "Feature",
      "geometry": {
        "type": "Point",
        "coordinates": [
          14.7050231,
          48.7204811
        ]
      },
      "properties": {
        "@type": "node",
        "@id": 566731749,
        "@url": "https://www.openstreetmap.org/node/566731749",
        "ele": "837.45"
      }
    },
    {
      "type": "Feature",
      "geometry": {
        "type": "Point",
        "coordinates": [
          14.7051089,
          48.7205887
        ]
      },
      "properties": {
        "@type": "node",
        "@id": 566731760,
        "@url": "https://www.openstreetmap.org/node/566731760",
        "ele": "837.93"
      }
    },
    {
      "type": "Feature",
      "geometry": {
        "type": "Point",
        "coordinates": [
          14.7053836,
          48.7207925
        ]
      },
      "properties": {
        "@type": "node",
        "@id": 566731775,
        "@url": "https://www.openstreetmap.org/node/566731775",
        "ele": "838.41"
      }
    },
    {
      "type": "Feature",
      "geometry": {
        "type": "Point",
        "coordinates": [
          14.7055123,
          48.7208661
        ]
      },
      "properties": {
        "@type": "node",
        "@id": 566731787,
        "@url": "https://www.openstreetmap.org/node/566731787",
        "ele": "838.41"
      }
    },
    {
      "type": "Feature",
      "geometry": {
        "type": "Point",
        "coordinates": [
          14.7056325,
          48.7209284
        ]
      },
      "properties": {
        "@type": "node",
        "@id": 566731802,
        "@url": "https://www.openstreetmap.org/node/566731802",
        "ele": "838.89"
      }
    },
    {
      "type": "Feature",
      "geometry": {
        "type": "Point",
        "coordinates": [
          14.7058728,
          48.7211719
        ]
      },
      "properties": {
        "@type": "node",
        "@id": 566731815,
        "@url": "https://www.openstreetmap.org/node/566731815",
        "ele": "839.85"
      }
    },
    {
      "type": "Feature",
      "geometry": {
        "type": "Point",
        "coordinates": [
          14.7059243,
          48.7212795
        ]
      },
      "properties": {
        "@type": "node",
        "@id": 566731831,
        "@url": "https://www.openstreetmap.org/node/566731831",
        "ele": "839.85"
      }
    },
    {
      "type": "Feature",
      "geometry": {
        "type": "Point",
        "coordinates": [
          14.7060888,
          48.7215286
        ]
      },
      "properties": {
        "@type": "node",
        "@id": 566731844,
        "@url": "https://www.openstreetmap.org/node/566731844",
        "ele": "841.77"
      }
    },
    {
      "type": "Feature",
      "geometry": {
        "type": "Point",
        "coordinates": [
          14.7062208,
          48.7216297
        ]
      },
      "properties": {
        "@type": "node",
        "@id": 566731860,
        "@url": "https://www.openstreetmap.org/node/566731860",
        "ele": "842.25"
      }
    },
    {
      "type": "Feature",
      "geometry": {
        "type": "Point",
        "coordinates": [
          14.7063261,
          48.7216551
        ]
      },
      "properties": {
        "@type": "node",
        "@id": 566731884,
        "@url": "https://www.openstreetmap.org/node/566731884",
        "ele": "841.77"
      }
    },
    {
      "type": "Feature",
      "geometry": {
        "type": "Point",
        "coordinates": [
          14.7065938,
          48.7216475
        ]
      },
      "properties": {
        "@type": "node",
        "@id": 566731905,
        "@url": "https://www.openstreetmap.org/node/566731905",
        "ele": "841.77"
      }
    },
    {
      "type": "Feature",
      "geometry": {
        "type": "Point",
        "coordinates": [
          14.7067654,
          48.7217098
        ]
      },
      "properties": {
        "@type": "node",
        "@id": 566731927,
        "@url": "https://www.openstreetmap.org/node/566731927",
        "ele": "842.25"
      }
    },
    {
      "type": "Feature",
      "geometry": {
        "type": "Point",
        "coordinates": [
          14.7067998,
          48.7217438
        ]
      },
      "properties": {
        "@type": "node",
        "@id": 566731938,
        "@url": "https://www.openstreetmap.org/node/566731938",
        "ele": "842.25"
      }
    },
    {
      "type": "Feature",
      "geometry": {
        "type": "Point",
        "coordinates": [
          14.7069114,
          48.7218797
        ]
      },
      "properties": {
        "@type": "node",
        "@id": 566731953,
        "@url": "https://www.openstreetmap.org/node/566731953",
        "ele": "842.73"
      }
    },
    {
      "type": "Feature",
      "geometry": {
        "type": "Point",
        "coordinates": [
          14.70698,
          48.7219363
        ]
      },
      "properties": {
        "@type": "node",
        "@id": 566731967,
        "@url": "https://www.openstreetmap.org/node/566731967",
        "ele": "842.73"
      }
    },
    {
      "type": "Feature",
      "geometry": {
        "type": "Point",
        "coordinates": [
          14.7071345,
          48.7220722
        ]
      },
      "properties": {
        "@type": "node",
        "@id": 566731980,
        "@url": "https://www.openstreetmap.org/node/566731980",
        "ele": "844.66"
      }
    },
    {
      "type": "Feature",
      "geometry": {
        "type": "Point",
        "coordinates": [
          14.707186,
          48.7221458
        ]
      },
      "properties": {
        "@type": "node",
        "@id": 566731998,
        "@url": "https://www.openstreetmap.org/node/566731998",
        "ele": "844.18"
      }
    },
    {
      "type": "Feature",
      "geometry": {
        "type": "Point",
        "coordinates": [
          14.7072118,
          48.7224176
        ]
      },
      "properties": {
        "@type": "node",
        "@id": 566732008,
        "@url": "https://www.openstreetmap.org/node/566732008",
        "ele": "846.1"
      }
    },
    {
      "type": "Feature",
      "geometry": {
        "type": "Point",
        "coordinates": [
          14.7071088,
          48.7226215
        ]
      },
      "properties": {
        "@type": "node",
        "@id": 566732021,
        "@url": "https://www.openstreetmap.org/node/566732021",
        "ele": "847.54"
      }
    },
    {
      "type": "Feature",
      "geometry": {
        "type": "Point",
        "coordinates": [
          14.7069629,
          48.7228593
        ]
      },
      "properties": {
        "@type": "node",
        "@id": 566732058,
        "@url": "https://www.openstreetmap.org/node/566732058",
        "ele": "849.46"
      }
    },
    {
      "type": "Feature",
      "geometry": {
        "type": "Point",
        "coordinates": [
          14.7069028,
          48.7230971
        ]
      },
      "properties": {
        "@type": "node",
        "@id": 566732072,
        "@url": "https://www.openstreetmap.org/node/566732072",
        "ele": "851.38"
      }
    },
    {
      "type": "Feature",
      "geometry": {
        "type": "Point",
        "coordinates": [
          14.7070659,
          48.7233576
        ]
      },
      "properties": {
        "@type": "node",
        "@id": 566732082,
        "@url": "https://www.openstreetmap.org/node/566732082",
        "ele": "852.35"
      }
    },
    {
      "type": "Feature",
      "geometry": {
        "type": "Point",
        "coordinates": [
          14.7073405,
          48.723652
        ]
      },
      "properties": {
        "@type": "node",
        "@id": 566732094,
        "@url": "https://www.openstreetmap.org/node/566732094",
        "ele": "851.87"
      }
    },
    {
      "type": "Feature",
      "geometry": {
        "type": "Point",
        "coordinates": [
          14.7074864,
          48.7238558
        ]
      },
      "properties": {
        "@type": "node",
        "@id": 566732110,
        "@url": "https://www.openstreetmap.org/node/566732110",
        "ele": "850.42"
      }
    },
    {
      "type": "Feature",
      "geometry": {
        "type": "Point",
        "coordinates": [
          14.7075128,
          48.7240823
        ]
      },
      "properties": {
        "@type": "node",
        "@id": 566732125,
        "@url": "https://www.openstreetmap.org/node/566732125",
        "ele": "849.94"
      }
    },
    {
      "type": "Feature",
      "geometry": {
        "type": "Point",
        "coordinates": [
          14.707598,
          48.7243824
        ]
      },
      "properties": {
        "@type": "node",
        "@id": 566732129,
        "@url": "https://www.openstreetmap.org/node/566732129",
        "ele": "849.94"
      }
    },
    {
      "type": "Feature",
      "geometry": {
        "type": "Point",
        "coordinates": [
          14.7076064,
          48.7245451
        ]
      },
      "properties": {
        "@type": "node",
        "@id": 566732146,
        "@url": "https://www.openstreetmap.org/node/566732146",
        "ele": "848.98"
      }
    },
    {
      "type": "Feature",
      "geometry": {
        "type": "Point",
        "coordinates": [
          14.7075913,
          48.7246938
        ]
      },
      "properties": {
        "@type": "node",
        "@id": 566732190,
        "@url": "https://www.openstreetmap.org/node/566732190",
        "ele": "849.46;849.94;848.5"
      }
    },
    {
      "type": "Feature",
      "geometry": {
        "type": "Point",
        "coordinates": [
          14.7074092,
          48.7249996
        ]
      },
      "properties": {
        "@type": "node",
        "@id": 566732217,
        "@url": "https://www.openstreetmap.org/node/566732217",
        "ele": "850.9"
      }
    },
    {
      "type": "Feature",
      "geometry": {
        "type": "Point",
        "coordinates": [
          14.7072718,
          48.7252827
        ]
      },
      "properties": {
        "@type": "node",
        "@id": 566732230,
        "@url": "https://www.openstreetmap.org/node/566732230",
        "ele": "851.38"
      }
    },
    {
      "type": "Feature",
      "geometry": {
        "type": "Point",
        "coordinates": [
          14.7072118,
          48.7253393
        ]
      },
      "properties": {
        "@type": "node",
        "@id": 566732242,
        "@url": "https://www.openstreetmap.org/node/566732242",
        "ele": "852.35"
      }
    },
    {
      "type": "Feature",
      "geometry": {
        "type": "Point",
        "coordinates": [
          14.7071946,
          48.7255828
        ]
      },
      "properties": {
        "@type": "node",
        "@id": 566732247,
        "@url": "https://www.openstreetmap.org/node/566732247",
        "ele": "852.83"
      }
    },
    {
      "type": "Feature",
      "geometry": {
        "type": "Point",
        "coordinates": [
          14.7073748,
          48.7257809
        ]
      },
      "properties": {
        "@type": "node",
        "@id": 566732260,
        "@url": "https://www.openstreetmap.org/node/566732260",
        "ele": "851.38"
      }
    },
    {
      "type": "Feature",
      "geometry": {
        "type": "Point",
        "coordinates": [
          14.7078297,
          48.7259791
        ]
      },
      "properties": {
        "@type": "node",
        "@id": 566732274,
        "@url": "https://www.openstreetmap.org/node/566732274",
        "ele": "848.98"
      }
    },
    {
      "type": "Feature",
      "geometry": {
        "type": "Point",
        "coordinates": [
          14.7079671,
          48.7260017
        ]
      },
      "properties": {
        "@type": "node",
        "@id": 566732285,
        "@url": "https://www.openstreetmap.org/node/566732285",
        "ele": "848.02"
      }
    },
    {
      "type": "Feature",
      "geometry": {
        "type": "Point",
        "coordinates": [
          14.7081731,
          48.7260414
        ]
      },
      "properties": {
        "@type": "node",
        "@id": 566732297,
        "@url": "https://www.openstreetmap.org/node/566732297",
        "ele": "846.58"
      }
    },
    {
      "type": "Feature",
      "geometry": {
        "type": "Point",
        "coordinates": [
          14.7083276,
          48.726098
        ]
      },
      "properties": {
        "@type": "node",
        "@id": 566732327,
        "@url": "https://www.openstreetmap.org/node/566732327",
        "ele": "845.62"
      }
    },
    {
      "type": "Feature",
      "geometry": {
        "type": "Point",
        "coordinates": [
          14.7084048,
          48.7261263
        ]
      },
      "properties": {
        "@type": "node",
        "@id": 566732340,
        "@url": "https://www.openstreetmap.org/node/566732340",
        "ele": "845.62"
      }
    },
    {
      "type": "Feature",
      "geometry": {
        "type": "Point",
        "coordinates": [
          14.7085679,
          48.7261603
        ]
      },
      "properties": {
        "@type": "node",
        "@id": 566732352,
        "@url": "https://www.openstreetmap.org/node/566732352",
        "ele": "844.66"
      }
    },
    {
      "type": "Feature",
      "geometry": {
        "type": "Point",
        "coordinates": [
          14.7086962,
          48.7262874
        ]
      },
      "properties": {
        "@type": "node",
        "@id": 566732364,
        "@url": "https://www.openstreetmap.org/node/566732364",
        "ele": "844.66"
      }
    },
    {
      "type": "Feature",
      "geometry": {
        "type": "Point",
        "coordinates": [
          14.7089276,
          48.7264749
        ]
      },
      "properties": {
        "@type": "node",
        "@id": 566732369,
        "@url": "https://www.openstreetmap.org/node/566732369",
        "ele": "844.66"
      }
    },
    {
      "type": "Feature",
      "geometry": {
        "type": "Point",
        "coordinates": [
          14.7090228,
          48.7265906
        ]
      },
      "properties": {
        "@type": "node",
        "@id": 566732386,
        "@url": "https://www.openstreetmap.org/node/566732386",
        "ele": "843.69"
      }
    },
    {
      "type": "Feature",
      "geometry": {
        "type": "Point",
        "coordinates": [
          14.7090915,
          48.7266755
        ]
      },
      "properties": {
        "@type": "node",
        "@id": 566732401,
        "@url": "https://www.openstreetmap.org/node/566732401",
        "ele": "843.69"
      }
    },
    {
      "type": "Feature",
      "geometry": {
        "type": "Point",
        "coordinates": [
          14.7091086,
          48.7268227
        ]
      },
      "properties": {
        "@type": "node",
        "@id": 566732410,
        "@url": "https://www.openstreetmap.org/node/566732410",
        "ele": "843.69"
      }
    },
    {
      "type": "Feature",
      "geometry": {
        "type": "Point",
        "coordinates": [
          14.7091334,
          48.7269819
        ]
      },
      "properties": {
        "@type": "node",
        "@id": 566732424,
        "@url": "https://www.openstreetmap.org/node/566732424",
        "ele": "843.69"
      }
    },
    {
      "type": "Feature",
      "geometry": {
        "type": "Point",
        "coordinates": [
          14.7091687,
          48.7271115
        ]
      },
      "properties": {
        "@type": "node",
        "@id": 566732443,
        "@url": "https://www.openstreetmap.org/node/566732443",
        "ele": "843.69"
      }
    },
    {
      "type": "Feature",
      "geometry": {
        "type": "Point",
        "coordinates": [
          14.7092374,
          48.7273209
        ]
      },
      "properties": {
        "@type": "node",
        "@id": 566732468,
        "@url": "https://www.openstreetmap.org/node/566732468",
        "ele": "843.21"
      }
    },