{
  "type": "FeatureCollection",
  "features": [
    {
      "type": "Feature",
      "geometry": {
        "type": "Point",
        "coordinates": [
          15.6160548,
          50.690507
        ]
      },
      "properties": {
        "@type": "node",
        "@id": 25808394,
        "ele": "976",
        "ref": "TK302",
        "ski": "yes",
        "name": "U Krásné Pláně",
        "note": "ref cyklotrasy KRNAP: MT012",
        "hiking": "yes",
        "bicycle": "yes",
        "highway": "emergency_access_point",
        "tourism": "information",
        "operator": "cz:KČT",
        "information": "guidepost"
      }
    },
    {
      "type": "Feature",
      "geometry": {
        "type": "Point",
        "coordinates": [
          15.5124467,
          50.7475041
        ]
      },
      "properties": {
        "@type": "node",
        "@id": 255446792,
        "ele": "1125",
        "ref": "SK099",
        "name": "Dvoračky (tur. ch.)",
        "note": "ref cyklotrasy KRNAP: MT005",
        "hiking": "yes",
        "source": "survey",
        "bicycle": "yes",
        "highway": "emergency_access_point",
        "tourism": "information",
        "operator": "cz:KČT",
        "information": "guidepost"
      }
    },
    {
      "type": "Feature",
      "geometry": {
        "type": "Point",
        "coordinates": [
          15.4850277,
          50.7498472
        ]
      },
      "properties": {
        "@type": "node",
        "@id": 255446846,
        "bicycle": "yes",
        "highway": "emergency_access_point",
        "hiking": "yes",
        "information": "guidepost",
        "name": "Ručičky",
        "note": "ref cyklotrasy KRNAP: MT004",
        "operator": "cz:KČT",
        "ref": "SK052;MT004",
        "source": "survey",
        "tourism": "information"
      }
    },
    {
      "type": "Feature",
      "geometry": {
        "type": "Point",
        "coordinates": [
          15.4487461,
          50.7485778
        ]
      },
      "properties": {
        "@type": "node",
        "@id": 255454686,
        "ele": "930",
        "ref": "SK104",
        "name": "Studenov",
        "note": "ref KRNAP: MT053",
        "hiking": "yes",
        "source": "survey",
        "bicycle": "yes",
        "highway": "emergency_access_point",
        "tourism": "information",
        "operator": "cz:KČT",
        "information": "guidepost"
      }
    },
    {
      "type": "Feature",
      "geometry": {
        "type": "Point",
        "coordinates": [
          13.222079,
          49.1652048
        ]
      },
      "properties": {
        "@type": "node",
        "@id": 300139620,
        "name": "Horská služba Špičák",
        "amenity": "mountain_rescue",
        "highway": "emergency_access_point",
        "source_ref": "http://jeseniky.org/attachments/442_CZ-Horska_sluzba.kml",
        "emergency_telephone_code": "+420376397273"
      }
    },
    {
      "type": "Feature",
      "geometry": {
        "type": "Point",
        "coordinates": [
          13.7171308,
          50.6993964
        ]
      },
      "properties": {
        "@type": "node",
        "@id": 302049327,
        "ref": "CZ 245",
        "image": "http://commons.wikimedia.org/wiki/File:Rettungspunkt_245_CZ.jpg",
        "highway": "emergency_access_point"
      }
    },
    {
      "type": "Feature",
      "geometry": {
        "type": "Point",
        "coordinates": [
          15.5319807,
          50.7558916
        ]
      },
      "properties": {
        "@type": "node",
        "@id": 302533136,
        "ele": "1367",
        "ref": "SK069",
        "name": "U Růženčiny zahrádky (rozcestí)",
        "hiking": "yes",
        "source": "survey",
        "highway": "emergency_access_point",
        "tourism": "information",
        "operator": "cz:KČT",
        "information": "guidepost"
      }
    },
    {
      "type": "Feature",
      "geometry": {
        "type": "Point",
        "coordinates": [
          15.4904764,
          50.7557475
        ]
      },
      "properties": {
        "@type": "node",
        "@id": 302607356,
        "ele": "1145",
        "ref": "SK051",
        "name": "Pod Zadním Plechem (rozcestí)",
        "hiking": "yes",
        "source": "survey;cuzk:km",
        "highway": "emergency_access_point",
        "tourism": "information",
        "operator": "cz:KČT",
        "information": "guidepost",
        "emergency_telephone_code": "+420 602 448 338"
      }
    },
    {
      "type": "Feature",
      "geometry": {
        "type": "Point",
        "coordinates": [
          17.378665,
          49.2922906
        ]
      },
      "properties": {
        "@type": "node",
        "@id": 332743091,
        "name": "Nemocnice Kroměříž budova A",
        "amenity": "hospital",
        "highway": "emergency_access_point"
      }
    },
    {
      "type": "Feature",
      "geometry": {
        "type": "Point",
        "coordinates": [
          13.9144491,
          49.7805006
        ]
      },
      "properties": {
        "@type": "node",
        "@id": 360815327,
        "highway": "emergency_access_point",
        "name": "4",
        "ref": "4"
      }
    },
    {
      "type": "Feature",
      "geometry": {
        "type": "Point",
        "coordinates": [
          14.0723813,
          50.8059955
        ]
      },
      "properties": {
        "@type": "node",
        "@id": 374255808,
        "highway": "emergency_access_point",
        "ref": "DC015"
      }
    },
    {
      "type": "Feature",
      "geometry": {
        "type": "Point",
        "coordinates": [
          14.5983554,
          50.0316863
        ]
      },
      "properties": {
        "@type": "node",
        "@id": 412271468,
        "highway": "emergency_access_point"
      }
    },
    {
      "type": "Feature",
      "geometry": {
        "type": "Point",
        "coordinates": [
          15.8543295,
          48.9062888
        ]
      },
      "properties": {
        "@type": "node",
        "@id": 441025167,
        "ref": "7.",
        "name": "ČÍRTKOVA HÁJENKA",
        "source": "gps",
        "highway": "emergency_access_point",
        "operator": "NP Podyji",
        "emergency_telephone_code": "+420112"
      }
    },
    {
      "type": "Feature",
      "geometry": {
        "type": "Point",
        "coordinates": [
          16.8452099,
          50.1507399
        ]
      },
      "properties": {
        "@type": "node",
        "@id": 441784673,
        "ref": "SU 067",
        "highway": "emergency_access_point",
        "operator": "Lesy ČR, s.p."
      }
    },
    {
      "type": "Feature",
      "geometry": {
        "type": "Point",
        "coordinates": [
          15.7003293,
          50.7100002
        ]
      },
      "properties": {
        "@type": "node",
        "@id": 460744758,
        "ele": "1165",
        "ref": "TU149",
        "name": "Richtrovy boudy",
        "hiking": "yes",
        "source": "gps",
        "highway": "emergency_access_point",
        "tourism": "information",
        "operator": "cz:KČT",
        "information": "guidepost",
        "emergency_telephone_code": "112"
      }
    },
    {
      "type": "Feature",
      "geometry": {
        "type": "Point",
        "coordinates": [
          15.7092099,
          50.7367238
        ]
      },
      "properties": {
        "@type": "node",
        "@id": 460994674,
        "ref": "TK 862",
        "name": "Úpské rašeliniště",
        "hiking": "yes",
        "source": "gps",
        "highway": "emergency_access_point",
        "tourism": "information",
        "operator": "cz:KČT",
        "information": "guidepost",
        "emergency_telephone_code": "112"
      }
    },
    {
      "type": "Feature",
      "geometry": {
        "type": "Point",
        "coordinates": [
          15.7391445,
          50.6954145
        ]
      },
      "properties": {
        "@type": "node",
        "@id": 581293261,
        "ref": "TK321",
        "name": "Pec pod Sněžkou - hotel Corso",
        "hiking": "yes",
        "highway": "emergency_access_point",
        "tourism": "information",
        "operator": "cz:KČT",
        "wheelchair": "yes",
        "information": "guidepost",
        "emergency_telephone_code": "112"
      }
    },
    {
      "type": "Feature",
      "geometry": {
        "type": "Point",
        "coordinates": [
          15.5439245,
          50.7178576
        ]
      },
      "properties": {
        "@type": "node",
        "@id": 597741676,
        "ref": "SK030",
        "name": "U Třídomí",
        "hiking": "yes",
        "highway": "emergency_access_point",
        "tourism": "information",
        "operator": "cz:KČT",
        "information": "guidepost",
        "emergency_telephone_code": "112"
      }
    },
    {
      "type": "Feature",
      "geometry": {
        "type": "Point",
        "coordinates": [
          15.2741605,
          50.4674426
        ]
      },
      "properties": {
        "@type": "node",
        "@id": 612577693,
        "ref": "E1",
        "name": "Ervínův hrad",
        "highway": "emergency_access_point",
        "operator": "SCHKO Český Ráj"
      }
    },
    {
      "type": "Feature",
      "geometry": {
        "type": "Point",
        "coordinates": [
          17.2093843,
          50.0296066
        ]
      },
      "properties": {
        "@type": "node",
        "@id": 615622969,
        "ref": "BR 069",
        "highway": "emergency_access_point"
      }
    },
    {
      "type": "Feature",
      "geometry": {
        "type": "Point",
        "coordinates": [
          15.4538204,
          50.7866884
        ]
      },
      "properties": {
        "@type": "node",
        "@id": 664204646,
        "ref": "SK100",
        "name": "Pod Jakšínem (rozcestí)",
        "hiking": "yes",
        "highway": "emergency_access_point",
        "tourism": "information",
        "operator": "cz:KČT",
        "information": "guidepost"
      }
    },
    {
      "type": "Feature",
      "geometry": {
        "type": "Point",
        "coordinates": [
          17.3506771,
          48.8450116
        ]
      },
      "properties": {
        "@type": "node",
        "@id": 838416671,
        "ref": "HO 020",
        "highway": "emergency_access_point",
        "emergency_telephone_code": "HO 020"
      }
    },
    {
      "type": "Feature",
      "geometry": {
        "type": "Point",
        "coordinates": [
          16.0045819,
          48.8321511
        ]
      },
      "properties": {
        "@type": "node",
        "@id": 912687276,
        "ref": "60.",
        "name": "U JANOVCE",
        "highway": "emergency_access_point",
        "operator": "NP Podyji",
        "emergency_telephone_code": "+420112"
      }
    },
    {
      "type": "Feature",
      "geometry": {
        "type": "Point",
        "coordinates": [
          15.8417817,
          48.9028625
        ]
      },
      "properties": {
        "@type": "node",
        "@id": 915769355,
        "ref": "9.",
        "name": "ONŠOVSKÁ BRÁNA",
        "highway": "emergency_access_point",
        "operator": "NP Podyji",
        "emergency_telephone_code": "+420112"
      }
    },
    {
      "type": "Feature",
      "geometry": {
        "type": "Point",
        "coordinates": [
          15.9624209,
          48.8253984
        ]
      },
      "properties": {
        "@type": "node",
        "@id": 962351018,
        "ref": "39.",
        "name": "LIPINA",
        "highway": "emergency_access_point",
        "operator": "NP Podyji",
        "emergency_telephone_code": "+420112"
      }
    },
    {
      "type": "Feature",
      "geometry": {
        "type": "Point",
        "coordinates": [
          15.9150697,
          48.8419451
        ]
      },
      "properties": {
        "@type": "node",
        "@id": 963525619,
        "ref": "31. NOVOHRÁDECKÁ",
        "source": "gps",
        "highway": "emergency_access_point",
        "operator": "NP Podyji",
        "emergency_telephone_code": "+420112"
      }
    },
    {
      "type": "Feature",
      "geometry": {
        "type": "Point",
        "coordinates": [
          15.9541189,
          48.8158957
        ]
      },
      "properties": {
        "@type": "node",
        "@id": 986320039,
        "ref": "68. HORÁKOVO KALIŠTĚ",
        "highway": "emergency_access_point",
        "operator": "NP Podyji",
        "emergency_telephone_code": "+420112"
      }
    },
    {
      "type": "Feature",
      "geometry": {
        "type": "Point",
        "coordinates": [
          15.9547007,
          48.844038
        ]
      },
      "properties": {
        "@type": "node",
        "@id": 986547981,
        "ref": "41. PÍSKY",
        "source": "gps",
        "highway": "emergency_access_point",
        "operator": "NP Podyji",
        "emergency_telephone_code": "+420112"
      }
    },
    {
      "type": "Feature",
      "geometry": {
        "type": "Point",
        "coordinates": [
          16.0089719,
          48.8513522
        ]
      },
      "properties": {
        "@type": "node",
        "@id": 1004279284,
        "ref": "47.",
        "name": "U OBRÁZKU",
        "source": "gps",
        "highway": "emergency_access_point",
        "operator": "NP Podyji",
        "emergency_telephone_code": "+420112"
      }
    },
    {
      "type": "Feature",
      "geometry": {
        "type": "Point",
        "coordinates": [
          15.938521,
          48.8321309
        ]
      },
      "properties": {
        "@type": "node",
        "@id": 1005881286,
        "ref": "35.",
        "name": "BARÁK",
        "highway": "emergency_access_point",
        "operator": "NP Podyji",
        "emergency_telephone_code": "+420112"
      }
    },
    {
      "type": "Feature",
      "geometry": {
        "type": "Point",
        "coordinates": [
          15.9897355,
          48.8535868
        ]
      },
      "properties": {
        "@type": "node",
        "@id": 1006017565,
        "ref": "43.",
        "name": "ZA PADĚLKY",
        "source": "gps",
        "highway": "emergency_access_point",
        "operator": "NP Podyji",
        "emergency_telephone_code": "+420112"
      }
    },
    {
      "type": "Feature",
      "geometry": {
        "type": "Point",
        "coordinates": [
          16.0239769,
          48.8544548
        ]
      },
      "properties": {
        "@type": "node",
        "@id": 1006056927,
        "ref": "50.",
        "name": "SADY",
        "source": "gps",
        "highway": "emergency_access_point",
        "operator": "NP Podyji",
        "emergency_telephone_code": "+420112"
      }
    },
    {
      "type": "Feature",
      "geometry": {
        "type": "Point",
        "coordinates": [
          16.0191397,
          48.8349807
        ]
      },
      "properties": {
        "@type": "node",
        "@id": 1069867867,
        "ref": "54.",
        "name": "KONICE - HŘIŠTĚ",
        "highway": "emergency_access_point",
        "operator": "NP Podyji",
        "emergency_telephone_code": "+420112"
      }
    },
    {
      "type": "Feature",
      "geometry": {
        "type": "Point",
        "coordinates": [
          15.9982885,
          48.8214511
        ]
      },
      "properties": {
        "@type": "node",
        "@id": 1073901605,
        "ref": "57.",
        "name": "U SADU",
        "highway": "emergency_access_point",
        "operator": "NP Podyji",
        "emergency_telephone_code": "+420112"
      }
    },
    {
      "type": "Feature",
      "geometry": {
        "type": "Point",
        "coordinates": [
          14.022068,
          50.5289861
        ]
      },
      "properties": {
        "@type": "node",
        "@id": 1232515659,
        "ref": "LT142",
        "hiking": "yes",
        "highway": "emergency_access_point",
        "tourism": "information",
        "operator": "cz:KČT",
        "information": "guidepost"
      }
    },
    {
      "type": "Feature",
      "geometry": {
        "type": "Point",
        "coordinates": [
          14.3597509,
          50.8921214
        ]
      },
      "properties": {
        "@type": "node",
        "@id": 1295264231,
        "ref": "8",
        "highway": "emergency_access_point"
      }
    },
    {
      "type": "Feature",
      "geometry": {
        "type": "Point",
        "coordinates": [
          15.4614378,
          50.7628158
        ]
      },
      "properties": {
        "@type": "node",
        "@id": 1562424827,
        "ref": "SK 872",
        "highway": "emergency_access_point",
        "emergency_telephone_code": "+420 602 448 338"
      }
    },
    {
      "type": "Feature",
      "geometry": {
        "type": "Point",
        "coordinates": [
          15.4817338,
          50.7846127
        ]
      },
      "properties": {
        "@type": "node",
        "@id": 1567923016,
        "ref": "SK889",
        "highway": "emergency_access_point"
      }
    },
    {
      "type": "Feature",
      "geometry": {
        "type": "Point",
        "coordinates": [
          15.8583337,
          48.8826582
        ]
      },
      "properties": {
        "@type": "node",
        "@id": 1637288713,
        "ref": "14.",
        "name": "NAD SLUJEMI",
        "highway": "emergency_access_point",
        "operator": "NP Podyji",
        "emergency_telephone_code": "+420112"
      }
    },
    {
      "type": "Feature",
      "geometry": {
        "type": "Point",
        "coordinates": [
          13.1557115,
          49.636768
        ]
      },
      "properties": {
        "@type": "node",
        "@id": 1794315670,
        "name": "ZZS PK, výjezdní místo Stod",
        "highway": "emergency_access_point"
      }
    },
    {
      "type": "Feature",
      "geometry": {
        "type": "Point",
        "coordinates": [
          15.9899305,
          48.8224403
        ]
      },
      "properties": {
        "@type": "node",
        "@id": 1827827210,
        "ref": "58.",
        "name": "NAD PAPÍRNOU",
        "highway": "emergency_access_point",
        "operator": "NP Podyji",
        "emergency_telephone_code": "+420112"
      }
    },
    {
      "type": "Feature",
      "geometry": {
        "type": "Point",
        "coordinates": [
          15.9968105,
          48.8242801
        ]
      },
      "properties": {
        "@type": "node",
        "@id": 1827827228,
        "ref": "59.",
        "name": "POPICKÝ POTOK",
        "highway": "emergency_access_point",
        "operator": "NP Podyji",
        "emergency_telephone_code": "+420112"
      }
    },
    {
      "type": "Feature",
      "geometry": {
        "type": "Point",
        "coordinates": [
          15.8861378,
          48.882827
        ]
      },
      "properties": {
        "@type": "node",
        "@id": 1834004636,
        "ref": "22.",
        "name": "ČÍŽOVSKÝ RYBNÍK",
        "source": "gps",
        "highway": "emergency_access_point",
        "operator": "NP Podyji",
        "emergency_telephone_code": "+420112"
      }
    },
    {
      "type": "Feature",
      "geometry": {
        "type": "Point",
        "coordinates": [
          15.9377241,
          48.8388523
        ]
      },
      "properties": {
        "@type": "node",
        "@id": 1834007077,
        "ref": "34.",
        "name": "U KRECHTU",
        "highway": "emergency_access_point",
        "operator": "NP Podyji",
        "emergency_telephone_code": "+420112"
      }
    },
    {
      "type": "Feature",
      "geometry": {
        "type": "Point",
        "coordinates": [
          16.509362,
          49.8994372
        ]
      },
      "properties": {
        "@type": "node",
        "@id": 1838977037,
        "ref": "UO 034",
        "name": "Bod Záchrany UO 034",
        "highway": "emergency_access_point",
        "operator": "Lesy ČR, s.p.",
        "emergency_telephone_code": "112"
      }
    },
    {
      "type": "Feature",
      "geometry": {
        "type": "Point",
        "coordinates": [
          13.4939763,
          49.1070743
        ]
      },
      "properties": {
        "@type": "node",
        "@id": 1941712324,
        "ele": "640",
        "ref": "SE023",
        "name": "Čeňkova pila",
        "hiking": "yes",
        "highway": "emergency_access_point",
        "tourism": "information",
        "operator": "cz:KČT",
        "information": "guidepost",
        "emergency_telephone_code": "112"
      }
    },
    {
      "type": "Feature",
      "geometry": {
        "type": "Point",
        "coordinates": [
          14.2702081,
          50.880901
        ]
      },
      "properties": {
        "@type": "node",
        "@id": 1949237480,
        "ref": "DC 069",
        "name": "DC 069",
        "highway": "emergency_access_point"
      }
    },
    {
      "type": "Feature",
      "geometry": {
        "type": "Point",
        "coordinates": [
          15.4340196,
          50.758331
        ]
      },
      "properties": {
        "@type": "node",
        "@id": 2083150573,
        "ref": "SK 871",
        "highway": "emergency_access_point",
        "emergency_telephone_code": "+420 602 448 338"
      }
    },
    {
      "type": "Feature",
      "geometry": {
        "type": "Point",
        "coordinates": [
          15.6116685,
          50.7724283
        ]
      },
      "properties": {
        "@type": "node",
        "@id": 2084996372,
        "ele": "1285",
        "ref": "TK273",
        "name": "Petrovka",
        "hiking": "yes",
        "highway": "emergency_access_point",
        "tourism": "information",
        "operator": "cz:KČT",
        "information": "guidepost",
        "emergency_telephone_code": "112"
      }
    },
    {
      "type": "Feature",
      "geometry": {
        "type": "Point",
        "coordinates": [
          15.6085423,
          50.742599
        ]
      },
      "properties": {
        "@type": "node",
        "@id": 2084996468,
        "ref": "TK264",
        "highway": "emergency_access_point",
        "emergency_telephone_code": "112"
      }
    },
    {
      "type": "Feature",
      "geometry": {
        "type": "Point",
        "coordinates": [
          15.5416496,
          50.7701877
        ]
      },
      "properties": {
        "@type": "node",
        "@id": 2084996550,
        "ref": "SK 872",
        "highway": "emergency_access_point",
        "emergency_telephone_code": "+420 602 448 338"
      }
    },
    {
      "type": "Feature",
      "geometry": {
        "type": "Point",
        "coordinates": [
          15.5353558,
          50.7793488
        ]
      },
      "properties": {
        "@type": "node",
        "@id": 2088407309,
        "emergency_telephone_code": "112",
        "highway": "emergency_access_point",
        "operator": "KRNAP",
        "ref": "TK008"
      }
    },
    {
      "type": "Feature",
      "geometry": {
        "type": "Point",
        "coordinates": [
          15.455906,
          50.7928955
        ]
      },
      "properties": {
        "@type": "node",
        "@id": 2091339347,
        "ele": "1005",
        "ref": "SK888;SK146",
        "name": "Kamenice - most pod Jakšínem",
        "hiking": "yes",
        "highway": "emergency_access_point",
        "tourism": "information",
        "operator": "cz:KČT",
        "information": "guidepost",
        "emergency_telephone_code": "+420 602 448 338"
      }
    },
    {
      "type": "Feature",
      "geometry": {
        "type": "Point",
        "coordinates": [
          15.4459204,
          50.8035292
        ]
      },
      "properties": {
        "@type": "node",
        "@id": 2091339365,
        "ref": "SK145",
        "highway": "emergency_access_point",
        "emergency_telephone_code": "+420 602 448 338"
      }
    },
    {
      "type": "Feature",
      "geometry": {
        "type": "Point",
        "coordinates": [
          15.5636212,
          50.6860347
        ]
      },
      "properties": {
        "@type": "node",
        "@id": 2306689087,
        "ref": "SK039",
        "highway": "emergency_access_point",
        "emergency_telephone_code": "+420 602 448 338"
      }
    },
    {
      "type": "Feature",
      "geometry": {
        "type": "Point",
        "coordinates": [
          15.564186,
          50.6964769
        ]
      },
      "properties": {
        "@type": "node",
        "@id": 2306689100,
        "ref": "SK 77",
        "highway": "emergency_access_point",
        "emergency_telephone_code": "+420 602 448 338"
      }
    },
    {
      "type": "Feature",
      "geometry": {
        "type": "Point",
        "coordinates": [
          15.5654113,
          50.709083
        ]
      },
      "properties": {
        "@type": "node",
        "@id": 2306689116,
        "ref": "SK 78",
        "highway": "emergency_access_point",
        "emergency_telephone_code": "+420 602 448 338"
      }
    },
    {
      "type": "Feature",
      "geometry": {
        "type": "Point",
        "coordinates": [
          15.5724463,
          50.7331473
        ]
      },
      "properties": {
        "@type": "node",
        "@id": 2306689135,
        "ref": "SK 013",
        "highway": "emergency_access_point",
        "emergency_telephone_code": "+420 602 448 338"
      }
    },
    {
      "type": "Feature",
      "geometry": {
        "type": "Point",
        "coordinates": [
          15.5633449,
          50.7451406
        ]
      },
      "properties": {
        "@type": "node",
        "@id": 2306689171,
        "ref": "SK 857",
        "highway": "emergency_access_point",
        "emergency_telephone_code": "+420 602 448 338"
      }
    },
    {
      "type": "Feature",
      "geometry": {
        "type": "Point",
        "coordinates": [
          15.6003511,
          50.747936
        ]
      },
      "properties": {
        "@type": "node",
        "@id": 2306689204,
        "ref": "TK 860",
        "highway": "emergency_access_point",
        "emergency_telephone_code": "+420 602 448 338"
      }
    },
    {
      "type": "Feature",
      "geometry": {
        "type": "Point",
        "coordinates": [
          15.5448597,
          50.7535289
        ]
      },
      "properties": {
        "@type": "node",
        "@id": 2306689210,
        "emergency": "access_point",
        "emergency_telephone_code": "1210",
        "highway": "emergency_access_point",
        "ref": "SK090"
      }
    },
    {
      "type": "Feature",
      "geometry": {
        "type": "Point",
        "coordinates": [
          15.5869557,
          50.7607852
        ]
      },
      "properties": {
        "@type": "node",
        "@id": 2306689220,
        "ref": "TK 447",
        "highway": "emergency_access_point",
        "emergency_telephone_code": "+420 602 448 338"
      }
    },
    {
      "type": "Feature",
      "geometry": {
        "type": "Point",
        "coordinates": [
          15.6976626,
          50.7346044
        ]
      },
      "properties": {
        "@type": "node",
        "@id": 2317133186,
        "ref": "TK 061",
        "highway": "emergency_access_point",
        "entrance": "yes",
        "emergency_telephone_code": "+420 602 448 338"
      }
    },
    {
      "type": "Feature",
      "geometry": {
        "type": "Point",
        "coordinates": [
          15.6418752,
          50.7438969
        ]
      },
      "properties": {
        "@type": "node",
        "@id": 2317133202,
        "ref": "TK 0861",
        "highway": "emergency_access_point",
        "emergency_telephone_code": "+420 602 448 338"
      }
    },
    {
      "type": "Feature",
      "geometry": {
        "type": "Point",
        "coordinates": [
          17.1695346,
          50.3367011
        ]
      },
      "properties": {
        "@type": "node",
        "@id": 2352725969,
        "highway": "emergency_access_point",
        "name": "4",
        "operator": "Rychlebské stezky, o.s.",
        "ref": "4",
        "source": "survey"
      }
    },
    {
      "type": "Feature",
      "geometry": {
        "type": "Point",
        "coordinates": [
          15.8598385,
          50.6624863
        ]
      },
      "properties": {
        "@type": "node",
        "@id": 2431290116,
        "ele": "956",
        "ref": "TK069;MT025",
        "ski": "yes",
        "name": "Rýchorský kříž",
        "hiking": "yes",
        "bicycle": "yes",
        "highway": "emergency_access_point",
        "tourism": "information",
        "operator": "cz:KČT",
        "information": "guidepost",
        "emergency_telephone_code": "112"
      }
    },
    {
      "type": "Feature",
      "geometry": {
        "type": "Point",
        "coordinates": [
          15.6267461,
          50.682935
        ]
      },
      "properties": {
        "@type": "node",
        "@id": 2449506210,
        "ref": "0406/9",
        "name": "Nad Hříběcí boudou",
        "hiking": "yes",
        "highway": "emergency_access_point",
        "tourism": "information",
        "operator": "cz:KČT",
        "information": "guidepost",
        "emergency_telephone_code": "112"
      }
    },
    {
      "type": "Feature",
      "geometry": {
        "type": "Point",
        "coordinates": [
          15.67443,
          50.7058203
        ]
      },
      "properties": {
        "@type": "node",
        "@id": 2482552644,
        "ele": "1349",
        "ref": "TK117",
        "name": "Chalupa Na Rozcestí",
        "hiking": "yes",
        "highway": "emergency_access_point",
        "tourism": "information",
        "operator": "cz:KČT",
        "information": "guidepost",
        "emergency_telephone_code": "112"
      }
    },
    {
      "type": "Feature",
      "geometry": {
        "type": "Point",
        "coordinates": [
          15.669272,
          50.7033492
        ]
      },
      "properties": {
        "@type": "node",
        "@id": 2482552652,
        "ele": "1327",
        "ref": "TK116",
        "name": "U Dvorské boudy",
        "hiking": "yes",
        "highway": "emergency_access_point",
        "tourism": "information",
        "operator": "cz:KČT",
        "information": "guidepost",
        "emergency_telephone_code": "112"
      }
    },
    {
      "type": "Feature",
      "geometry": {
        "type": "Point",
        "coordinates": [
          14.3883141,
          50.9052711
        ]
      },
      "properties": {
        "@type": "node",
        "@id": 2565610334,
        "ref": "2225",
        "name": "Hermannseck (oben)",
        "highway": "emergency_access_point",
        "tourism": "information",
        "operator": "Nationalparkverwaltung Sächsische Schweiz",
        "information": "guidepost"
      }
    },
    {
      "type": "Feature",
      "geometry": {
        "type": "Point",
        "coordinates": [
          13.2447754,
          50.5780288
        ]
      },
      "properties": {
        "@type": "node",
        "@id": 2577061262,
        "ref": "36",
        "name": "Pomoc v Nouzi",
        "note": "a sign with a ref number on a red cross with emergency numbers and coordinates of the location",
        "highway": "emergency_access_point"
      }
    },
    {
      "type": "Feature",
      "geometry": {
        "type": "Point",
        "coordinates": [
          13.2446791,
          50.5740471
        ]
      },
      "properties": {
        "@type": "node",
        "@id": 2577063918,
        "ref": "38",
        "highway": "emergency_access_point"
      }
    },
    {
      "type": "Feature",
      "geometry": {
        "type": "Point",
        "coordinates": [
          13.2784333,
          49.1651667
        ]
      },
      "properties": {
        "@type": "node",
        "@id": 2799117590,
        "emergency_telephone_code": "112",
        "highway": "emergency_access_point",
        "operator": "Lesy ČR, s.p.",
        "ref": "KT015"
      }
    },
    {
      "type": "Feature",
      "geometry": {
        "type": "Point",
        "coordinates": [
          15.5936352,
          50.7131225
        ]
      },
      "properties": {
        "@type": "node",
        "@id": 2899626231,
        "ref": "TK 018",
        "name": "U Hromovky",
        "hiking": "yes",
        "highway": "emergency_access_point",
        "tourism": "information",
        "operator": "cz:KČT",
        "information": "guidepost",
        "emergency_telephone_code": "112"
      }
    },
    {
      "type": "Feature",
      "geometry": {
        "type": "Point",
        "coordinates": [
          15.5461979,
          50.7691072
        ]
      },
      "properties": {
        "@type": "node",
        "@id": 2901359450,
        "emergency": "access_point",
        "emergency_telephone_code": "112",
        "highway": "emergency_access_point",
        "operator": "KRNAP",
        "ref": "TK002"
      }
    },
    {
      "type": "Feature",
      "geometry": {
        "type": "Point",
        "coordinates": [
          15.7243086,
          50.7121272
        ]
      },
      "properties": {
        "@type": "node",
        "@id": 2901535491,
        "ref": "TK 826",
        "phone": "112",
        "highway": "emergency_access_point"
      }
    },
    {
      "type": "Feature",
      "geometry": {
        "type": "Point",
        "coordinates": [
          15.7414133,
          50.729335
        ]
      },
      "properties": {
        "@type": "node",
        "@id": 2901536804,
        "emergency_telephone_code": "112",
        "highway": "emergency_access_point",
        "operator": "Lesy ČR s.p.",
        "ref": "TK558",
        "source": "survey"
      }
    },
    {
      "type": "Feature",
      "geometry": {
        "type": "Point",
        "coordinates": [
          15.7433578,
          50.7380966
        ]
      },
      "properties": {
        "@type": "node",
        "@id": 2952329064,
        "ele": "1520",
        "ref": "TK036",
        "name": "Jubilejní cesta (rozcestí)",
        "hiking": "yes",
        "highway": "emergency_access_point",
        "tourism": "information",
        "operator": "cz:KČT",
        "short_name": "Jubilejní cesta (rozc.)",
        "information": "guidepost",
        "emergency_telephone_code": "112"
      }
    },
    {
      "type": "Feature",
      "geometry": {
        "type": "Point",
        "coordinates": [
          15.7980849,
          50.7257521
        ]
      },
      "properties": {
        "@type": "node",
        "@id": 3046733714,
        "ref": "MT094",
        "name": "Eliščino údolí",
        "note": "TK851",
        "bicycle": "yes",
        "highway": "emergency_access_point",
        "tourism": "information",
        "information": "guidepost",
        "emergency_telephone_code": "112"
      }
    },
    {
      "type": "Feature",
      "geometry": {
        "type": "Point",
        "coordinates": [
          13.6768652,
          48.9174172
        ]
      },
      "properties": {
        "@type": "node",
        "@id": 3088925120,
        "emergency_telephone_code": "112",
        "highway": "emergency_access_point",
        "ref": "A92"
      }
    },
    {
      "type": "Feature",
      "geometry": {
        "type": "Point",
        "coordinates": [
          13.3029843,
          49.1176138
        ]
      },
      "properties": {
        "@type": "node",
        "@id": 3094196604,
        "name": "A12",
        "highway": "emergency_access_point",
        "emergency": "access_point"
      }
    },
    {
      "type": "Feature",
      "geometry": {
        "type": "Point",
        "coordinates": [
          13.8274435,
          48.9857872
        ]
      },
      "properties": {
        "@type": "node",
        "@id": 3120147844,
        "ref": "PT021",
        "highway": "emergency_access_point"
      }
    },
    {
      "type": "Feature",
      "geometry": {
        "type": "Point",
        "coordinates": [
          13.8600905,
          48.9689807
        ]
      },
      "properties": {
        "@type": "node",
        "@id": 3120181187,
        "ref": "PT 025",
        "highway": "emergency_access_point"
      }
    },
    {
      "type": "Feature",
      "geometry": {
        "type": "Point",
        "coordinates": [
          15.6538316,
          50.6989827
        ]
      },
      "properties": {
        "@type": "node",
        "@id": 3127190525,
        "ref": "TK 809",
        "name": "Horní stanice vleku Friesovy boudy",
        "hiking": "yes",
        "highway": "emergency_access_point",
        "tourism": "information",
        "operator": "cz:KČT",
        "information": "guidepost",
        "emergency_telephone_code": "112"
      }
    },
    {
      "type": "Feature",
      "geometry": {
        "type": "Point",
        "coordinates": [
          15.6317499,
          50.7137962
        ]
      },
      "properties": {
        "@type": "node",
        "@id": 3127190526,
        "ref": "TK 819",
        "name": "Křižovatka běžecké trasy a svážnice na Stoh",
        "hiking": "yes",
        "highway": "emergency_access_point",
        "tourism": "information",
        "operator": "cz:KČT",
        "short_name": "Křiž. běžecké trasy a svážnice na Stoh",
        "information": "guidepost",
        "emergency_telephone_code": "112"
      }
    },
    {
      "type": "Feature",
      "geometry": {
        "type": "Point",
        "coordinates": [
          15.6303318,
          50.7071314
        ]
      },
      "properties": {
        "@type": "node",
        "@id": 3127190527,
        "ref": "TK 817",
        "name": "Křižovatka letní cesty ke Klášterce a svážnice",
        "hiking": "yes",
        "highway": "emergency_access_point",
        "tourism": "information",
        "operator": "cz:KČT",
        "short_name": "Křiž. letní cesty ke Klášterce a svážnice",
        "information": "guidepost",
        "emergency_telephone_code": "112"
      }
    },
    {
      "type": "Feature",
      "geometry": {
        "type": "Point",
        "coordinates": [
          15.6186078,
          50.6969835
        ]
      },
      "properties": {
        "@type": "node",
        "@id": 3127190528,
        "ref": "TK 807",
        "name": "Křižovatka svážnice a modré cesty k boudě Hájenka",
        "hiking": "yes",
        "highway": "emergency_access_point",
        "tourism": "information",
        "operator": "cz:KČT",
        "short_name": "Křiž. svážnice a modré cesty k b. Hájenka",
        "information": "guidepost",
        "emergency_telephone_code": "112"
      }
    },
    {
      "type": "Feature",
      "geometry": {
        "type": "Point",
        "coordinates": [
          15.6320493,
          50.7105569
        ]
      },
      "properties": {
        "@type": "node",
        "@id": 3127198629,
        "ref": "TK 818",
        "ski": "yes",
        "name": "Křižovatka u Srubu",
        "highway": "emergency_access_point",
        "tourism": "information",
        "short_name": "Křiž. u Srubu",
        "information": "guidepost",
        "emergency_telephone_code": "112"
      }
    },
    {
      "type": "Feature",
      "geometry": {
        "type": "Point",
        "coordinates": [
          15.6848346,
          50.7200297
        ]
      },
      "properties": {
        "@type": "node",
        "@id": 3127198630,
        "ref": "TK 840",
        "name": "Křižovatka koňské a letní cesty",
        "hiking": "yes",
        "highway": "emergency_access_point",
        "tourism": "information",
        "operator": "cz:KČT",
        "information": "guidepost",
        "emergency_telephone_code": "112"
      }
    },
    {
      "type": "Feature",
      "geometry": {
        "type": "Point",
        "coordinates": [
          15.7012919,
          50.7192808
        ]
      },
      "properties": {
        "@type": "node",
        "@id": 3127198631,
        "ref": "TK 842",
        "name": "Lavinový svah Modrý důl",
        "hiking": "yes",
        "highway": "emergency_access_point",
        "tourism": "information",
        "operator": "cz:KČT",
        "information": "guidepost",
        "emergency_telephone_code": "112"
      }
    },
    {
      "type": "Feature",
      "geometry": {
        "type": "Point",
        "coordinates": [
          15.6913993,
          50.7214258
        ]
      },
      "properties": {
        "@type": "node",
        "@id": 3127198632,
        "ref": "TK 841",
        "name": "Modrá stráň",
        "hiking": "yes",
        "highway": "emergency_access_point",
        "tourism": "information",
        "operator": "cz:KČT",
        "information": "guidepost",
        "emergency_telephone_code": "112"
      }
    },
    {
      "type": "Feature",
      "geometry": {
        "type": "Point",
        "coordinates": [
          15.6167686,
          50.7068722
        ]
      },
      "properties": {
        "@type": "node",
        "@id": 3127198634,
        "ref": "TK304",
        "name": "Pláň (lanovka)",
        "note": "ref cyklotrasy KRNAP: MT079",
        "hiking": "yes",
        "bicycle": "yes",
        "highway": "emergency_access_point",
        "tourism": "information",
        "operator": "cz:KČT",
        "short_name": "Pláň (lan.)",
        "information": "guidepost",
        "emergency_telephone_code": "112"
      }
    },
    {
      "type": "Feature",
      "geometry": {
        "type": "Point",
        "coordinates": [
          15.6036426,
          50.6877646
        ]
      },
      "properties": {
        "@type": "node",
        "@id": 3127198635,
        "ref": "TK 806",
        "name": "Přední Struhadla",
        "hiking": "yes",
        "highway": "emergency_access_point",
        "tourism": "information",
        "operator": "cz:KČT",
        "information": "guidepost",
        "emergency_telephone_code": "112"
      }
    },
    {
      "type": "Feature",
      "geometry": {
        "type": "Point",
        "coordinates": [
          15.6557456,
          50.7133112
        ]
      },
      "properties": {
        "@type": "node",
        "@id": 3127198636,
        "ref": "TK 821",
        "name": "Rozcestí zimní cesty a cesty na Stoh",
        "hiking": "yes",
        "highway": "emergency_access_point",
        "tourism": "information",
        "operator": "cz:KČT",
        "information": "guidepost",
        "emergency_telephone_code": "112"
      }
    },
    {
      "type": "Feature",
      "geometry": {
        "type": "Point",
        "coordinates": [
          15.6388358,
          50.7204619
        ]
      },
      "properties": {
        "@type": "node",
        "@id": 3127198637,
        "ref": "TK837",
        "name": "Sjezdovka Stoh",
        "hiking": "yes",
        "highway": "emergency_access_point",
        "tourism": "information",
        "operator": "cz:KČT",
        "information": "guidepost",
        "emergency_telephone_code": "112"
      }
    },
    {
      "type": "Feature",
      "geometry": {
        "type": "Point",
        "coordinates": [
          15.6458402,
          50.726628
        ]
      },
      "properties": {
        "@type": "node",
        "@id": 3127198638,
        "ref": "TK 838",
        "name": "Svatý Petr, Stráž",
        "hiking": "yes",
        "highway": "emergency_access_point",
        "tourism": "information",
        "operator": "cz:KČT",
        "information": "guidepost",
        "emergency_telephone_code": "112"
      }
    },
    {
      "type": "Feature",
      "geometry": {
        "type": "Point",
        "coordinates": [
          15.6080435,
          50.7018292
        ]
      },
      "properties": {
        "@type": "node",
        "@id": 3127198639,
        "ref": "TK 816",
        "name": "Vidlice",
        "hiking": "yes",
        "highway": "emergency_access_point",
        "tourism": "information",
        "operator": "cz:KČT",
        "information": "guidepost",
        "emergency_telephone_code": "112"
      }
    },
    {
      "type": "Feature",
      "geometry": {
        "type": "Point",
        "coordinates": [
          15.6445059,
          50.7074512
        ]
      },
      "properties": {
        "@type": "node",
        "@id": 3127198640,
        "emergency_telephone_code": "112",
        "highway": "emergency_access_point",
        "hiking": "yes",
        "information": "guidepost",
        "name": "TK 820",
        "operator": "cz:KČT",
        "ref": "TK 820",
        "tourism": "information"
      }
    },
    {
      "type": "Feature",
      "geometry": {
        "type": "Point",
        "coordinates": [
          15.6111331,
          50.6839072
        ]
      },
      "properties": {
        "@type": "node",
        "@id": 3127198641,
        "ref": "TK 805",
        "name": "Zadní Struhadla",
        "hiking": "yes",
        "highway": "emergency_access_point",
        "tourism": "information",
        "operator": "cz:KČT",
        "information": "guidepost",
        "emergency_telephone_code": "112"
      }
    },
    {
      "type": "Feature",
      "geometry": {
        "type": "Point",
        "coordinates": [
          15.7074704,
          50.7154211
        ]
      },
      "properties": {
        "@type": "node",
        "@id": 3127198642,
        "ref": "TK 825",
        "name": "Začátek tyčového značení k Výrovce",
        "hiking": "yes",
        "highway": "emergency_access_point",
        "tourism": "information",
        "operator": "cz:KČT",
        "information": "guidepost",
        "emergency_telephone_code": "112"
      }
    },
    {
      "type": "Feature",
      "geometry": {
        "type": "Point",
        "coordinates": [
          15.6672788,
          50.7200602
        ]
      },
      "properties": {
        "@type": "node",
        "@id": 3127198643,
        "ref": "TK 839",
        "name": "Červenkova mohyla",
        "hiking": "yes",
        "highway": "emergency_access_point",
        "tourism": "information",
        "operator": "cz:KČT",
        "information": "guidepost",
        "emergency_telephone_code": "112"
      }
    },
    {
      "type": "Feature",
      "geometry": {
        "type": "Point",
        "coordinates": [
          15.7630509,
          50.7112432
        ]
      },
      "properties": {
        "@type": "node",
        "@id": 3127273531,
        "ref": "TK 827",
        "name": "Braunovka",
        "hiking": "yes",
        "highway": "emergency_access_point",
        "tourism": "information",
        "operator": "cz:KČT",
        "information": "guidepost",
        "emergency_telephone_code": "112"
      }
    },
    {
      "type": "Feature",
      "geometry": {
        "type": "Point",
        "coordinates": [
          15.8307589,
          50.7304604
        ]
      },
      "properties": {
        "@type": "node",
        "@id": 3127273533,
        "ref": "TK 854",
        "name": "Horní stanice vleku na Pomezním hřbetu",
        "hiking": "yes",
        "highway": "emergency_access_point",
        "tourism": "information",
        "operator": "cz:KČT",
        "information": "guidepost",
        "emergency_telephone_code": "112"
      }
    },
    {
      "type": "Feature",
      "geometry": {
        "type": "Point",
        "coordinates": [
          15.7723716,
          50.7190288
        ]
      },
      "properties": {
        "@type": "node",
        "@id": 3127273534,
        "ref": "TK 847",
        "name": "Jelení důl",
        "hiking": "yes",
        "highway": "emergency_access_point",
        "tourism": "information",
        "operator": "cz:KČT",
        "information": "guidepost",
        "emergency_telephone_code": "112"
      }
    },
    {
      "type": "Feature",
      "geometry": {
        "type": "Point",
        "coordinates": [
          15.7914391,
          50.7186945
        ]
      },
      "properties": {
        "@type": "node",
        "@id": 3127273535,
        "ref": "TK 850",
        "name": "Křižovatka pod Niklovým Vrchem",
        "hiking": "yes",
        "highway": "emergency_access_point",
        "tourism": "information",
        "operator": "cz:KČT",
        "information": "guidepost",
        "emergency_telephone_code": "112"
      }
    },
    {
      "type": "Feature",
      "geometry": {
        "type": "Point",
        "coordinates": [
          15.7641378,
          50.7301316
        ]
      },
      "properties": {
        "@type": "node",
        "@id": 3127273536,
        "ref": "TK 846",
        "name": "Lví důl",
        "hiking": "yes",
        "highway": "emergency_access_point",
        "tourism": "information",
        "operator": "cz:KČT",
        "information": "guidepost",
        "emergency_telephone_code": "112"
      }
    },
    {
      "type": "Feature",
      "geometry": {
        "type": "Point",
        "coordinates": [
          15.7747913,
          50.7249319
        ]
      },
      "properties": {
        "@type": "node",
        "@id": 3127273537,
        "ref": "TK 848",
        "name": "Na Kose",
        "hiking": "yes",
        "highway": "emergency_access_point",
        "tourism": "information",
        "operator": "cz:KČT",
        "information": "guidepost",
        "emergency_telephone_code": "112"
      }
    },
    {
      "type": "Feature",
      "geometry": {
        "type": "Point",
        "coordinates": [
          15.8708603,
          50.648625
        ]
      },
      "properties": {
        "@type": "node",
        "@id": 3127273538,
        "ele": "978",
        "ref": "TK072",
        "name": "Pod Dvorským lesem",
        "hiking": "yes",
        "highway": "emergency_access_point",
        "tourism": "information",
        "operator": "cz:KČT",
        "information": "guidepost",
        "emergency_telephone_code": "112"
      }
    },
    {
      "type": "Feature",
      "geometry": {
        "type": "Point",
        "coordinates": [
          15.8405983,
          50.6889746
        ]
      },
      "properties": {
        "@type": "node",
        "@id": 3127273540,
        "ref": "TK 814",
        "name": "Raisova kaple",
        "hiking": "yes",
        "highway": "emergency_access_point",
        "tourism": "information",
        "operator": "cz:KČT",
        "information": "guidepost",
        "emergency_telephone_code": "112"
      }
    },
    {
      "type": "Feature",
      "geometry": {
        "type": "Point",
        "coordinates": [
          15.7828444,
          50.7282371
        ]
      },
      "properties": {
        "@type": "node",
        "@id": 3127273541,
        "ref": "TK 849",
        "name": "Velký Polom",
        "hiking": "yes",
        "highway": "emergency_access_point",
        "tourism": "information",
        "operator": "cz:KČT",
        "information": "guidepost",
        "emergency_telephone_code": "112"
      }
    },
    {
      "type": "Feature",
      "geometry": {
        "type": "Point",
        "coordinates": [
          15.8221704,
          50.7265276
        ]
      },
      "properties": {
        "@type": "node",
        "@id": 3127273542,
        "ref": "TK 853",
        "name": "Věra",
        "hiking": "yes",
        "highway": "emergency_access_point",
        "tourism": "information",
        "operator": "cz:KČT",
        "information": "guidepost",
        "emergency_telephone_code": "112"
      }
    },
    {
      "type": "Feature",
      "geometry": {
        "type": "Point",
        "coordinates": [
          15.804926,
          50.7161111
        ]
      },
      "properties": {
        "@type": "node",
        "@id": 3127273543,
        "ref": "TK 829",
        "name": "Zatáčka pod Kraví horou",
        "hiking": "yes",
        "highway": "emergency_access_point",
        "tourism": "information",
        "operator": "cz:KČT",
        "information": "guidepost",
        "emergency_telephone_code": "112"
      }
    },
    {
      "type": "Feature",
      "geometry": {
        "type": "Point",
        "coordinates": [
          15.7876242,
          50.7352416
        ]
      },
      "properties": {
        "@type": "node",
        "@id": 3127273545,
        "ref": "TK 867",
        "name": "Žacléřské Boudy",
        "hiking": "yes",
        "highway": "emergency_access_point",
        "tourism": "information",
        "operator": "cz:KČT",
        "information": "guidepost",
        "emergency_telephone_code": "112"
      }
    },
    {
      "type": "Feature",
      "geometry": {
        "type": "Point",
        "coordinates": [
          13.4352818,
          48.9862603
        ]
      },
      "properties": {
        "@type": "node",
        "@id": 3129476986,
        "ref": "A 63",
        "name": "Rettungspunkt A63",
        "highway": "emergency_access_point",
        "name:cs": "Bod záchrany A63"
      }
    },
    {
      "type": "Feature",
      "geometry": {
        "type": "Point",
        "coordinates": [
          12.6157879,
          50.3902326
        ]
      },
      "properties": {
        "@type": "node",
        "@id": 3157641723,
        "emergency_telephone_code": "112",
        "highway": "emergency_access_point",
        "operator": "Lesy ČR, s.p.",
        "ref": "SO077"
      }
    },
    {
      "type": "Feature",
      "geometry": {
        "type": "Point",
        "coordinates": [
          13.6889476,
          48.8850138
        ]
      },
      "properties": {
        "@type": "node",
        "@id": 3160982313,
        "ref": "A 98",
        "name": "A 98",
        "highway": "emergency_access_point"
      }
    },
    {
      "type": "Feature",
      "geometry": {
        "type": "Point",
        "coordinates": [
          13.6267449,
          48.9572136
        ]
      },
      "properties": {
        "@type": "node",
        "@id": 3187725018,
        "emergency": "access_point",
        "emergency_telephone_code": "112",
        "highway": "emergency_access_point",
        "ref": "A85"
      }
    },
    {
      "type": "Feature",
      "geometry": {
        "type": "Point",
        "coordinates": [
          13.6434886,
          48.9510275
        ]
      },
      "properties": {
        "@type": "node",
        "@id": 3187738648,
        "emergency_telephone_code": "112",
        "highway": "emergency_access_point",
        "ref": "A87"
      }
    },
    {
      "type": "Feature",
      "geometry": {
        "type": "Point",
        "coordinates": [
          13.6392319,
          48.9698082
        ]
      },
      "properties": {
        "@type": "node",
        "@id": 3202621588,
        "ref": "A 86",
        "name": "A 86",
        "highway": "emergency_access_point",
        "name:de": "Abzwg.Judenweg 990m"
      }
    },
    {
      "type": "Feature",
      "geometry": {
        "type": "Point",
        "coordinates": [
          13.6573396,
          48.9167657
        ]
      },
      "properties": {
        "@type": "node",
        "@id": 3202637530,
        "ref": "A 91",
        "name": "A 91",
        "highway": "emergency_access_point"
      }
    },
    {
      "type": "Feature",
      "geometry": {
        "type": "Point",
        "coordinates": [
          13.6539087,
          48.9351837
        ]
      },
      "properties": {
        "@type": "node",
        "@id": 3202671586,
        "emergency_telephone_code": "112",
        "highway": "emergency_access_point",
        "ref": "A89"
      }
    },
    {
      "type": "Feature",
      "geometry": {
        "type": "Point",
        "coordinates": [
          13.3548763,
          49.0841632
        ]
      },
      "properties": {
        "@type": "node",
        "@id": 3270085632,
        "ref": "A 24",
        "name": "A 24",
        "highway": "emergency_access_point",
        "emergency": "access_point"
      }
    },
    {
      "type": "Feature",
      "geometry": {
        "type": "Point",
        "coordinates": [
          14.3483573,
          50.8442072
        ]
      },
      "properties": {
        "@type": "node",
        "@id": 3310833036,
        "highway": "emergency_access_point"
      }
    },
    {
      "type": "Feature",
      "geometry": {
        "type": "Point",
        "coordinates": [
          13.7115243,
          48.9096139
        ]
      },
      "properties": {
        "@type": "node",
        "@id": 3320283060,
        "ref": "A 96",
        "name": "A 96",
        "highway": "emergency_access_point"
      }
    },
    {
      "type": "Feature",
      "geometry": {
        "type": "Point",
        "coordinates": [
          15.5920582,
          50.7563814
        ]
      },
      "properties": {
        "@type": "node",
        "@id": 3528463123,
        "ref": "TK 876",
        "highway": "emergency_access_point",
        "emergency_telephone_code": "+420 602 448 338"
      }
    },
    {
      "type": "Feature",
      "geometry": {
        "type": "Point",
        "coordinates": [
          16.113962,
          50.6112039
        ]
      },
      "properties": {
        "@type": "node",
        "@id": 3529227991,
        "emergency": "rescue_box",
        "highway": "emergency_access_point",
        "operator": "Lesy ČR, s.p."
      }
    },
    {
      "type": "Feature",
      "geometry": {
        "type": "Point",
        "coordinates": [
          13.2348762,
          49.1245918
        ]
      },
      "properties": {
        "@type": "node",
        "@id": 3588621324,
        "ref": "A 1",
        "name": "A 1",
        "highway": "emergency_access_point",
        "emergency": "access_point"
      }
    },
    {
      "type": "Feature",
      "geometry": {
        "type": "Point",
        "coordinates": [
          17.2170023,
          50.0360286
        ]
      },
      "properties": {
        "@type": "node",
        "@id": 3597717006,
        "ref": "BR 070",
        "highway": "emergency_access_point"
      }
    },
    {
      "type": "Feature",
      "geometry": {
        "type": "Point",
        "coordinates": [
          15.5383057,
          50.7542798
        ]
      },
      "properties": {
        "@type": "node",
        "@id": 3619104675,
        "ele": "1421",
        "ref": "SK081",
        "name": "Harrachovy kameny",
        "hiking": "yes",
        "highway": "emergency_access_point",
        "tourism": "information",
        "operator": "cz:KČT",
        "information": "guidepost"
      }
    },
    {
      "type": "Feature",
      "geometry": {
        "type": "Point",
        "coordinates": [
          13.3357671,
          49.1037974
        ]
      },
      "properties": {
        "@type": "node",
        "@id": 3652524363,
        "ref": "A 17",
        "name": "A 17",
        "highway": "emergency_access_point",
        "emergency": "access_point"
      }
    },
    {
      "type": "Feature",
      "geometry": {
        "type": "Point",
        "coordinates": [
          17.331624,
          49.1497185
        ]
      },
      "properties": {
        "@type": "node",
        "@id": 3808349559,
        "amenity": "shelter",
        "highway": "emergency_access_point",
        "ref": "UH 037",
        "shelter_type": "picnic_shelter"
      }
    },
    {
      "type": "Feature",
      "geometry": {
        "type": "Point",
        "coordinates": [
          15.801681,
          50.7319869
        ]
      },
      "properties": {
        "@type": "node",
        "@id": 4006464408,
        "ele": "1002",
        "ref": "TK852",
        "name": "Haida",
        "hiking": "yes",
        "highway": "emergency_access_point",
        "natural": "peak",
        "tourism": "information",
        "operator": "cz:KČT",
        "information": "guidepost",
        "emergency_telephone_code": "112"
      }
    },
    {
      "type": "Feature",
      "geometry": {
        "type": "Point",
        "coordinates": [
          16.9700787,
          49.3700265
        ]
      },
      "properties": {
        "@type": "node",
        "@id": 4142510589,
        "name": "12 + 127",
        "phone": "00420973450991",
        "highway": "emergency_access_point",
        "website": "https://www.vls.cz/"
      }
    },
    {
      "type": "Feature",
      "geometry": {
        "type": "Point",
        "coordinates": [
          15.6232191,
          50.7650091
        ]
      },
      "properties": {
        "@type": "node",
        "@id": 4176703756,
        "ref": "TK 881",
        "highway": "emergency_access_point",
        "emergency_telephone_code": "+420 602 448 338"
      }
    },
    {
      "type": "Feature",
      "geometry": {
        "type": "Point",
        "coordinates": [
          15.2962777,
          50.4661349
        ]
      },
      "properties": {
        "@type": "node",
        "@id": 4241530920,
        "ref": "JC070",
        "name": "U Hlaholské vyhlídky",
        "hiking": "yes",
        "highway": "emergency_access_point",
        "tourism": "information",
        "operator": "cz:KČT",
        "information": "guidepost",
        "emergency_telephone_code": "112"
      }
    },
    {
      "type": "Feature",
      "geometry": {
        "type": "Point",
        "coordinates": [
          14.0618004,
          48.9036802
        ]
      },
      "properties": {
        "@type": "node",
        "@id": 4256226199,
        "highway": "emergency_access_point"
      }
    },
    {
      "type": "Feature",
      "geometry": {
        "type": "Point",
        "coordinates": [
          14.878823,
          50.6059579
        ]
      },
      "properties": {
        "@type": "node",
        "@id": 4284074778,
        "ref": "32",
        "name": "Jabloneček - parkoviště",
        "highway": "emergency_access_point",
        "operator": "VLS",
        "emergency": "access_point"
      }
    },
    {
      "type": "Feature",
      "geometry": {
        "type": "Point",
        "coordinates": [
          14.7368237,
          50.5672021
        ]
      },
      "properties": {
        "@type": "node",
        "@id": 4284074780,
        "ref": "44",
        "name": "U Flesla",
        "note": "souřadnice na štítku jsou lehce nesprávné",
        "highway": "emergency_access_point",
        "operator": "VLS",
        "emergency": "water_tank"
      }
    },
    {
      "type": "Feature",
      "geometry": {
        "type": "Point",
        "coordinates": [
          14.7448013,
          50.5420711
        ]
      },
      "properties": {
        "@type": "node",
        "@id": 4284074781,
        "ref": "53",
        "name": "U Smrku",
        "highway": "emergency_access_point",
        "operator": "VLS",
        "emergency": "access_point"
      }
    },
    {
      "type": "Feature",
      "geometry": {
        "type": "Point",
        "coordinates": [
          13.591287,
          48.9656387
        ]
      },
      "properties": {
        "@type": "node",
        "@id": 4286585112,
        "ref": "A 81",
        "name": "A 81",
        "highway": "emergency_access_point",
        "emergency": "access_point"
      }
    },
    {
      "type": "Feature",
      "geometry": {
        "type": "Point",
        "coordinates": [
          13.6197371,
          49.0506706
        ]
      },
      "properties": {
        "@type": "node",
        "@id": 4287167761,
        "ref": "A 77",
        "name": "A 77",
        "highway": "emergency_access_point",
        "emergency": "access_point"
      }
    },
    {
      "type": "Feature",
      "geometry": {
        "type": "Point",
        "coordinates": [
          14.8527054,
          50.5528912
        ]
      },
      "properties": {
        "@type": "node",
        "@id": 4289374377,
        "ref": "48",
        "name": "Dolní Krupá",
        "highway": "emergency_access_point",
        "operator": "VLS",
        "emergency": "access_point"
      }
    },
    {
      "type": "Feature",
      "geometry": {
        "type": "Point",
        "coordinates": [
          14.8271305,
          50.5706171
        ]
      },
      "properties": {
        "@type": "node",
        "@id": 4289374379,
        "ref": "42",
        "name": "Horní Krupá",
        "highway": "emergency_access_point",
        "operator": "VLS",
        "emergency": "access_point"
      }
    },
    {
      "type": "Feature",
      "geometry": {
        "type": "Point",
        "coordinates": [
          14.7632642,
          50.5859835
        ]
      },
      "properties": {
        "@type": "node",
        "@id": 4290493932,
        "ref": "37",
        "name": "Travnatá",
        "highway": "emergency_access_point",
        "operator": "VLS",
        "emergency": "access_point"
      }
    },
    {
      "type": "Feature",
      "geometry": {
        "type": "Point",
        "coordinates": [
          13.7339204,
          50.7130452
        ]
      },
      "properties": {
        "@type": "node",
        "@id": 4292726774,
        "highway": "emergency_access_point"
      }
    },
    {
      "type": "Feature",
      "geometry": {
        "type": "Point",
        "coordinates": [
          14.7463167,
          50.6875944
        ]
      },
      "properties": {
        "@type": "node",
        "@id": 4306499687,
        "ref": "2",
        "name": "Noviny",
        "highway": "emergency_access_point",
        "operator": "VLS",
        "emergency": "access_point"
      }
    },
    {
      "type": "Feature",
      "geometry": {
        "type": "Point",
        "coordinates": [
          14.7894937,
          50.6351612
        ]
      },
      "properties": {
        "@type": "node",
        "@id": 4306499688,
        "ref": "20",
        "name": "Ploužnický rybník",
        "highway": "emergency_access_point",
        "operator": "VLS",
        "emergency": "water_tank"
      }
    },
    {
      "type": "Feature",
      "geometry": {
        "type": "Point",
        "coordinates": [
          15.5111229,
          50.7827594
        ]
      },
      "properties": {
        "@type": "node",
        "@id": 4331973648,
        "emergency": "access_point",
        "emergency_telephone_code": "112",
        "highway": "emergency_access_point",
        "operator": "KRNAP",
        "ref": "SK042"
      }
    },
    {
      "type": "Feature",
      "geometry": {
        "type": "Point",
        "coordinates": [
          15.7139854,
          50.7123037
        ]
      },
      "properties": {
        "@type": "node",
        "@id": 4332591720,
        "ref": "TK150",
        "name": "TK150",
        "highway": "emergency_access_point",
        "emergency": "access_point",
        "emergency_telephone_code": "+420 1210"
      }
    },
    {
      "type": "Feature",
      "geometry": {
        "type": "Point",
        "coordinates": [
          13.8170118,
          48.8597394
        ]
      },
      "properties": {
        "@type": "node",
        "@id": 4403838650,
        "ref": "A 107",
        "name": "A 107",
        "highway": "emergency_access_point",
        "name:de": "Rettungspunkt - A 107"
      }
    },
    {
      "type": "Feature",
      "geometry": {
        "type": "Point",
        "coordinates": [
          13.8718314,
          49.7518856
        ]
      },
      "properties": {
        "@type": "node",
        "@id": 4407766958,
        "emergency": "access_point",
        "emergency_telephone_code": "112",
        "highway": "emergency_access_point",
        "ref": "47"
      }
    },
    {
      "type": "Feature",
      "geometry": {
        "type": "Point",
        "coordinates": [
          16.0334648,
          49.6598863
        ]
      },
      "properties": {
        "@type": "node",
        "@id": 4418502853,
        "emergency_telephone_code": "112",
        "highway": "emergency_access_point",
        "operator": "Lesy ČR, s.p.",
        "ref": "ZR016"
      }
    },
    {
      "type": "Feature",
      "geometry": {
        "type": "Point",
        "coordinates": [
          13.2595546,
          49.1233829
        ]
      },
      "properties": {
        "@type": "node",
        "@id": 4421234947,
        "ref": "A2",
        "name": "A2",
        "highway": "emergency_access_point"
      }
    },
    {
      "type": "Feature",
      "geometry": {
        "type": "Point",
        "coordinates": [
          15.2745572,
          50.4738834
        ]
      },
      "properties": {
        "@type": "node",
        "@id": 4473711788,
        "emergency_telephone_code": "112",
        "highway": "emergency_access_point",
        "name": "Lahole",
        "operator": "SCHKO Český Ráj",
        "ref": "L4"
      }
    },
    {
      "type": "Feature",
      "geometry": {
        "type": "Point",
        "coordinates": [
          18.5736633,
          49.603127
        ]
      },
      "properties": {
        "@type": "node",
        "@id": 4683054320,
        "ref": "FM012",
        "highway": "emergency_access_point",
        "operator": "Lesy ČR",
        "emergency_telephone_code": "112"
      }
    },
    {
      "type": "Feature",
      "geometry": {
        "type": "Point",
        "coordinates": [
          15.6067358,
          50.0653418
        ]
      },
      "properties": {
        "@type": "node",
        "@id": 4699130186,
        "ref": "PA004",
        "highway": "emergency_access_point",
        "emergency": "access_point"
      }
    },
    {
      "type": "Feature",
      "geometry": {
        "type": "Point",
        "coordinates": [
          18.6870742,
          49.5512137
        ]
      },
      "properties": {
        "@type": "node",
        "@id": 4719248787,
        "ref": "FM 048",
        "highway": "emergency_access_point"
      }
    },
    {
      "type": "Feature",
      "geometry": {
        "type": "Point",
        "coordinates": [
          13.9747936,
          50.0886138
        ]
      },
      "properties": {
        "@type": "node",
        "@id": 4763391353,
        "ref": "06",
        "name": "Ešnerovka-Kaštánka",
        "source": "survey",
        "highway": "emergency_access_point",
        "operator": "Lesní správa Lány",
        "emergency_telephone_code": "112"
      }
    },
    {
      "type": "Feature",
      "geometry": {
        "type": "Point",
        "coordinates": [
          16.6264239,
          49.3000351
        ]
      },
      "properties": {
        "@type": "node",
        "@id": 4769927689,
        "emergency": "access_point",
        "emergency_telephone_code": "112",
        "highway": "emergency_access_point",
        "operator": "Mendelova univerzita v Brně",
        "ref": "BO039"
      }
    },
    {
      "type": "Feature",
      "geometry": {
        "type": "Point",
        "coordinates": [
          14.7948587,
          48.8538654
        ]
      },
      "properties": {
        "@type": "node",
        "@id": 4797626497,
        "ref": "CB 033",
        "name": "CB 033",
        "source": "survey",
        "highway": "emergency_access_point"
      }
    },
    {
      "type": "Feature",
      "geometry": {
        "type": "Point",
        "coordinates": [
          16.3612865,
          49.0432632
        ]
      },
      "properties": {
        "@type": "node",
        "@id": 4825552256,
        "ref": "ZN001",
        "highway": "emergency_access_point",
        "emergency": "access_point",
        "emergency_telephone_code": "112"
      }
    },
    {
      "type": "Feature",
      "geometry": {
        "type": "Point",
        "coordinates": [
          16.3558181,
          49.0287027
        ]
      },
      "properties": {
        "@type": "node",
        "@id": 4825552257,
        "ref": "ZN002",
        "highway": "emergency_access_point",
        "emergency": "access_point",
        "emergency_telephone_code": "112"
      }
    },
    {
      "type": "Feature",
      "geometry": {
        "type": "Point",
        "coordinates": [
          15.7875337,
          49.9038154
        ]
      },
      "properties": {
        "@type": "node",
        "@id": 4831591191,
        "name": "PDH 007",
        "highway": "emergency_access_point"
      }
    },
    {
      "type": "Feature",
      "geometry": {
        "type": "Point",
        "coordinates": [
          16.0581113,
          49.087441
        ]
      },
      "properties": {
        "@type": "node",
        "@id": 4846601263,
        "ref": "TR018",
        "highway": "emergency_access_point",
        "emergency": "access_point",
        "emergency_telephone_code": "112"
      }
    },
    {
      "type": "Feature",
      "geometry": {
        "type": "Point",
        "coordinates": [
          17.2111094,
          49.8930385
        ]
      },
      "properties": {
        "@type": "node",
        "@id": 4852628970,
        "highway": "emergency_access_point",
        "operator": "Lesy ČR, s. p.",
        "emergency_telephone_code": "BR 081"
      }
    },
    {
      "type": "Feature",
      "geometry": {
        "type": "Point",
        "coordinates": [
          16.5482067,
          49.2707666
        ]
      },
      "properties": {
        "@type": "node",
        "@id": 4858007949,
        "ref": "BO 014",
        "name": "BO 014",
        "highway": "emergency_access_point",
        "emergency": "access_point",
        "emergency_telephone_code": "112"
      }
    },
    {
      "type": "Feature",
      "geometry": {
        "type": "Point",
        "coordinates": [
          13.9330325,
          49.9645401
        ]
      },
      "properties": {
        "@type": "node",
        "@id": 4878780425,
        "ref": "BE008",
        "highway": "emergency_access_point"
      }
    },
    {
      "type": "Feature",
      "geometry": {
        "type": "Point",
        "coordinates": [
          14.6944349,
          50.5292836
        ]
      },
      "properties": {
        "@type": "node",
        "@id": 4882139261,
        "ref": "51",
        "name": "Okna",
        "highway": "emergency_access_point",
        "operator": "VLS",
        "emergency": "access_point"
      }
    },
    {
      "type": "Feature",
      "geometry": {
        "type": "Point",
        "coordinates": [
          14.7738909,
          50.6085684
        ]
      },
      "properties": {
        "@type": "node",
        "@id": 4893735025,
        "ref": "31",
        "name": "Skelná Huť - odbočka",
        "highway": "emergency_access_point",
        "operator": "VLS",
        "emergency": "access_point"
      }
    },
    {
      "type": "Feature",
      "geometry": {
        "type": "Point",
        "coordinates": [
          14.7206906,
          50.6108565
        ]
      },
      "properties": {
        "@type": "node",
        "@id": 4893735027,
        "ref": "29",
        "name": "Držník - rybník",
        "highway": "emergency_access_point",
        "operator": "VLS",
        "emergency": "access_point"
      }
    },
    {
      "type": "Feature",
      "geometry": {
        "type": "Point",
        "coordinates": [
          14.7521027,
          50.6307778
        ]
      },
      "properties": {
        "@type": "node",
        "@id": 4893735029,
        "ref": "23",
        "name": "Ploužnice",
        "highway": "emergency_access_point",
        "operator": "VLS",
        "emergency": "access_point"
      }
    },
    {
      "type": "Feature",
      "geometry": {
        "type": "Point",
        "coordinates": [
          14.8944877,
          50.6429102
        ]
      },
      "properties": {
        "@type": "node",
        "@id": 4935666403,
        "ref": "17",
        "name": "Trafostanice - křižovatka",
        "highway": "emergency_access_point",
        "operator": "VLS",
        "emergency": "access_point"
      }
    },
    {
      "type": "Feature",
      "geometry": {
        "type": "Point",
        "coordinates": [
          14.8723018,
          50.6219523
        ]
      },
      "properties": {
        "@type": "node",
        "@id": 4935666404,
        "ref": "28",
        "name": "Kracmanov",
        "highway": "emergency_access_point",
        "operator": "VLS",
        "emergency": "access_point"
      }
    },
    {
      "type": "Feature",
      "geometry": {
        "type": "Point",
        "coordinates": [
          14.6528049,
          50.6487455
        ]
      },
      "properties": {
        "@type": "node",
        "@id": 4935666416,
        "ref": "16",
        "name": "Brenná",
        "highway": "emergency_access_point",
        "operator": "VLS",
        "emergency": "access_point"
      }
    },
    {
      "type": "Feature",
      "geometry": {
        "type": "Point",
        "coordinates": [
          14.1279348,
          49.0604695
        ]
      },
      "properties": {
        "@type": "node",
        "@id": 4951545243,
        "ref": "PT 040",
        "name": "PT 040",
        "highway": "emergency_access_point",
        "operator": "Lesy ČR",
        "emergency": "access_point"
      }
    },
    {
      "type": "Feature",
      "geometry": {
        "type": "Point",
        "coordinates": [
          15.702922,
          49.4407536
        ]
      },
      "properties": {
        "@type": "node",
        "@id": 4957398481,
        "ref": "JI 015",
        "highway": "emergency_access_point",
        "operator": "Lesy ČR",
        "emergency": "access_point"
      }
    },
    {
      "type": "Feature",
      "geometry": {
        "type": "Point",
        "coordinates": [
          18.4667852,
          49.5396507
        ]
      },
      "properties": {
        "@type": "node",
        "@id": 4961384225,
        "ref": "FM011",
        "highway": "emergency_access_point",
        "operator": "Lesy ČR",
        "emergency_telephone_code": "112"
      }
    },
    {
      "type": "Feature",
      "geometry": {
        "type": "Point",
        "coordinates": [
          14.2029646,
          48.974106
        ]
      },
      "properties": {
        "@type": "node",
        "@id": 4974874598,
        "ref": "CK 017",
        "name": "CK 017",
        "highway": "emergency_access_point",
        "operator": "Lesy ČR",
        "emergency": "access_point"
      }
    },
    {
      "type": "Feature",
      "geometry": {
        "type": "Point",
        "coordinates": [
          14.2699438,
          49.2093601
        ]
      },
      "properties": {
        "@type": "node",
        "@id": 4988740329,
        "ref": "PI 001",
        "name": "PI 001",
        "highway": "emergency_access_point",
        "operator": "Lesy ČR",
        "emergency": "access_point"
      }
    },
    {
      "type": "Feature",
      "geometry": {
        "type": "Point",
        "coordinates": [
          15.5060507,
          50.5901906
        ]
      },
      "properties": {
        "@type": "node",
        "@id": 5005962793,
        "ref": "SM 005",
        "name": "Bod Záchrany (Rescue Point) SM 005",
        "highway": "emergency_access_point"
      }
    },
    {
      "type": "Feature",
      "geometry": {
        "type": "Point",
        "coordinates": [
          18.3966869,
          49.3703068
        ]
      },
      "properties": {
        "@type": "node",
        "@id": 5009057411,
        "ref": "VS 024",
        "highway": "emergency_access_point"
      }
    },
    {
      "type": "Feature",
      "geometry": {
        "type": "Point",
        "coordinates": [
          14.4726575,
          50.0211683
        ]
      },
      "properties": {
        "@type": "node",
        "@id": 5034723524,
        "ref": "AA 012",
        "name": "AA 012 DH U Václava IV.",
        "source": "survey",
        "highway": "emergency_access_point",
        "operator": "Lesy hl. m. Prahy",
        "emergency": "access_point"
      }
    },
    {
      "type": "Feature",
      "geometry": {
        "type": "Point",
        "coordinates": [
          14.4723432,
          50.0197102
        ]
      },
      "properties": {
        "@type": "node",
        "@id": 5034723525,
        "ref": "AA 013",
        "name": "AA 013 U zříceniny",
        "source": "survey",
        "highway": "emergency_access_point",
        "operator": "Lesy hl. m. Prahy",
        "emergency": "access_point"
      }
    },
    {
      "type": "Feature",
      "geometry": {
        "type": "Point",
        "coordinates": [
          14.4780107,
          50.0295104
        ]
      },
      "properties": {
        "@type": "node",
        "@id": 5034723526,
        "emergency": "access_point",
        "highway": "emergency_access_point",
        "name": "U březového altánu",
        "operator": "Lesy hl. m. Prahy",
        "ref": "AA015",
        "source": "survey"
      }
    },
    {
      "type": "Feature",
      "geometry": {
        "type": "Point",
        "coordinates": [
          14.458683,
          50.0340144
        ]
      },
      "properties": {
        "@type": "node",
        "@id": 5034723527,
        "ref": "AA 017",
        "name": "AA 017 U altánu, u rybníku Labuť",
        "source": "survey",
        "highway": "emergency_access_point",
        "operator": "Lesy hl. m. Prahy",
        "emergency": "access_point"
      }
    },
    {
      "type": "Feature",
      "geometry": {
        "type": "Point",
        "coordinates": [
          14.4676127,
          50.0351345
        ]
      },
      "properties": {
        "@type": "node",
        "@id": 5034723528,
        "ref": "AA 016",
        "name": "AA 016 U sekvojí",
        "source": "survey",
        "highway": "emergency_access_point",
        "operator": "Lesy hl. m. Prahy",
        "emergency": "access_point"
      }
    },
    {
      "type": "Feature",
      "geometry": {
        "type": "Point",
        "coordinates": [
          14.4877179,
          50.0262859
        ]
      },
      "properties": {
        "@type": "node",
        "@id": 5034723529,
        "ref": "AA 014",
        "name": "AA 014 U brány",
        "source": "survey",
        "highway": "emergency_access_point",
        "operator": "Lesy hl. m. Prahy",
        "emergency": "access_point"
      }
    },
    {
      "type": "Feature",
      "geometry": {
        "type": "Point",
        "coordinates": [
          15.5755773,
          49.8961076
        ]
      },
      "properties": {
        "@type": "node",
        "@id": 5097712523,
        "emergency_telephone_code": "112",
        "highway": "emergency_access_point",
        "operator": "Lesy ČR, s.p.",
        "ref": "CR008"
      }
    },
    {
      "type": "Feature",
      "geometry": {
        "type": "Point",
        "coordinates": [
          14.8862312,
          50.5805454
        ]
      },
      "properties": {
        "@type": "node",
        "@id": 5103455597,
        "ref": "39",
        "name": "Mukařov",
        "highway": "emergency_access_point",
        "operator": "VLS",
        "emergency": "access_point"
      }
    },
    {
      "type": "Feature",
      "geometry": {
        "type": "Point",
        "coordinates": [
          14.852353,
          50.5721177
        ]
      },
      "properties": {
        "@type": "node",
        "@id": 5103455598,
        "ref": "43",
        "name": "Horní Rokytá",
        "highway": "emergency_access_point",
        "operator": "VLS",
        "emergency": "access_point"
      }
    },
    {
      "type": "Feature",
      "geometry": {
        "type": "Point",
        "coordinates": [
          16.8084249,
          49.5311755
        ]
      },
      "properties": {
        "@type": "node",
        "@id": 5109678718,
        "ref": "BK003",
        "highway": "emergency_access_point",
        "operator": "Lesy ČR, s.p.",
        "emergency_telephone_code": "112"
      }
    },
    {
      "type": "Feature",
      "geometry": {
        "type": "Point",
        "coordinates": [
          14.8066682,
          50.585953
        ]
      },
      "properties": {
        "@type": "node",
        "@id": 5111254291,
        "ref": "38",
        "name": "Kuřívody, odbočka k oboře Židlov",
        "highway": "emergency_access_point",
        "operator": "VLS",
        "emergency": "access_point"
      }
    },
    {
      "type": "Feature",
      "geometry": {
        "type": "Point",
        "coordinates": [
          16.0630538,
          49.409208
        ]
      },
      "properties": {
        "@type": "node",
        "@id": 5139964622,
        "ref": "ZR 013",
        "highway": "emergency_access_point",
        "operator": "Lesy ČR, s.p."
      }
    },
    {
      "type": "Feature",
      "geometry": {
        "type": "Point",
        "coordinates": [
          16.0767688,
          49.6570691
        ]
      },
      "properties": {
        "@type": "node",
        "@id": 5154193258,
        "emergency_telephone_code": "112",
        "highway": "emergency_access_point",
        "operator": "Lesy ČR, s.p.",
        "ref": "ZR020"
      }
    },
    {
      "type": "Feature",
      "geometry": {
        "type": "Point",
        "coordinates": [
          13.1686807,
          49.1863002
        ]
      },
      "properties": {
        "@type": "node",
        "@id": 5157175066,
        "ref": "KT 048",
        "highway": "emergency_access_point",
        "emergency": "access_point"
      }
    },
    {
      "type": "Feature",
      "geometry": {
        "type": "Point",
        "coordinates": [
          18.4948276,
          49.5440245
        ]
      },
      "properties": {
        "@type": "node",
        "@id": 5167959136,
        "ref": "FM019",
        "highway": "emergency_access_point"
      }
    },
    {
      "type": "Feature",
      "geometry": {
        "type": "Point",
        "coordinates": [
          14.4617706,
          50.1373415
        ]
      },
      "properties": {
        "@type": "node",
        "@id": 5182464669,
        "ref": "AA 030",
        "name": "AA 030 U altánu V lomu",
        "source": "survey",
        "highway": "emergency_access_point",
        "operator": "Lesy hl. m. Prahy",
        "emergency": "access_point"
      }
    },
    {
      "type": "Feature",
      "geometry": {
        "type": "Point",
        "coordinates": [
          14.4582182,
          50.1353444
        ]
      },
      "properties": {
        "@type": "node",
        "@id": 5182464670,
        "emergency": "access_point",
        "highway": "emergency_access_point",
        "operator": "Lesy hl. m. Prahy",
        "ref": "AA029",
        "source": "survey;gps"
      }
    },
    {
      "type": "Feature",
      "geometry": {
        "type": "Point",
        "coordinates": [
          16.844632,
          49.2610098
        ]
      },
      "properties": {
        "@type": "node",
        "@id": 5210598534,
        "ref": "VY 009",
        "highway": "emergency_access_point",
        "operator": "Lesy ČR, s.p.",
        "emergency_telephone_code": "112"
      }
    },
    {
      "type": "Feature",
      "geometry": {
        "type": "Point",
        "coordinates": [
          16.8235914,
          49.2476801
        ]
      },
      "properties": {
        "@type": "node",
        "@id": 5210598539,
        "ref": "BO 011",
        "highway": "emergency_access_point",
        "operator": "Lesy ČR, s.p.",
        "emergency_telephone_code": "112"
      }
    },
    {
      "type": "Feature",
      "geometry": {
        "type": "Point",
        "coordinates": [
          16.8504932,
          50.197872
        ]
      },
      "properties": {
        "@type": "node",
        "@id": 5211184547,
        "ref": "UO 005",
        "highway": "emergency_access_point",
        "operator": "Lesy ČR, s.p."
      }
    },
    {
      "type": "Feature",
      "geometry": {
        "type": "Point",
        "coordinates": [
          14.6819202,
          48.6565698
        ]
      },
      "properties": {
        "@type": "node",
        "@id": 5214166821,
        "ref": "CK 063",
        "name": "CK 063",
        "highway": "emergency_access_point",
        "operator": "Lesy CR",
        "emergency_telephone_code": "112"
      }
    },
    {
      "type": "Feature",
      "geometry": {
        "type": "Point",
        "coordinates": [
          13.4302,
          49.1025109
        ]
      },
      "properties": {
        "@type": "node",
        "@id": 5244982007,
        "ref": "A35",
        "name": "A 35",
        "highway": "emergency_access_point",
        "emergency": "access_point"
      }
    },
    {
      "type": "Feature",
      "geometry": {
        "type": "Point",
        "coordinates": [
          17.6864339,
          49.3241399
        ]
      },
      "properties": {
        "@type": "node",
        "@id": 5249179828,
        "ref": "ZL 001",
        "highway": "emergency_access_point",
        "emergency_telephone_code": "112"
      }
    },
    {
      "type": "Feature",
      "geometry": {
        "type": "Point",
        "coordinates": [
          16.0840917,
          49.6523624
        ]
      },
      "properties": {
        "@type": "node",
        "@id": 5264394286,
        "ref": "29",
        "highway": "emergency_access_point",
        "emergency_telephone_code": "+420774454044"
      }
    },
    {
      "type": "Feature",
      "geometry": {
        "type": "Point",
        "coordinates": [
          15.3112678,
          49.0240566
        ]
      },
      "properties": {
        "@type": "node",
        "@id": 5290061839,
        "ref": "JH 016",
        "name": "JH 016",
        "source": "survey",
        "highway": "emergency_access_point"
      }
    },
    {
      "type": "Feature",
      "geometry": {
        "type": "Point",
        "coordinates": [
          17.0578,
          48.923
        ]
      },
      "properties": {
        "@type": "node",
        "@id": 5301037277,
        "ref": "HO 004",
        "name": "HO 004",
        "highway": "emergency_access_point",
        "operator": "LESY ČR",
        "emergency": "access_point",
        "emergency_telephone_code": "112"
      }
    },
    {
      "type": "Feature",
      "geometry": {
        "type": "Point",
        "coordinates": [
          14.4041732,
          50.8701595
        ]
      },
      "properties": {
        "@type": "node",
        "@id": 5306273016,
        "ref": "13",
        "highway": "emergency_access_point"
      }
    },
    {
      "type": "Feature",
      "geometry": {
        "type": "Point",
        "coordinates": [
          13.8441708,
          50.2595179
        ]
      },
      "properties": {
        "@type": "node",
        "@id": 5310671724,
        "name": "LN020",
        "highway": "emergency_access_point"
      }
    },
    {
      "type": "Feature",
      "geometry": {
        "type": "Point",
        "coordinates": [
          16.1335667,
          48.9612054
        ]
      },
      "properties": {
        "@type": "node",
        "@id": 5353278596,
        "ref": "ZN021",
        "highway": "emergency_access_point",
        "emergency": "access_point",
        "emergency_telephone_code": "112"
      }
    },
    {
      "type": "Feature",
      "geometry": {
        "type": "Point",
        "coordinates": [
          16.0116505,
          48.8349955
        ]
      },
      "properties": {
        "@type": "node",
        "@id": 5387182836,
        "emergency": "access_point",
        "emergency_telephone_code": "112",
        "highway": "emergency_access_point",
        "name": "Trauznické údolí",
        "operator": "NP Podyji",
        "ref": "55",
        "source": "gps"
      }
    },
    {
      "type": "Feature",
      "geometry": {
        "type": "Point",
        "coordinates": [
          16.692014,
          49.458311
        ]
      },
      "properties": {
        "@type": "node",
        "@id": 5387726038,
        "ref": "BK015",
        "highway": "emergency_access_point"
      }
    },
    {
      "type": "Feature",
      "geometry": {
        "type": "Point",
        "coordinates": [
          16.6841043,
          49.2643292
        ]
      },
      "properties": {
        "@type": "node",
        "@id": 5408211413,
        "ref": "BO043",
        "source": "survey;gps",
        "highway": "emergency_access_point",
        "operator": "Mendlova univerzita v Brně",
        "emergency_telephone_code": "112"
      }
    },
    {
      "type": "Feature",
      "geometry": {
        "type": "Point",
        "coordinates": [
          15.2874046,
          50.4649468
        ]
      },
      "properties": {
        "@type": "node",
        "@id": 5456187959,
        "name": "F1",
        "highway": "emergency_access_point",
        "operator": "SCHKO Český Ráj",
        "description": "Nad Fortnou"
      }
    },
    {
      "type": "Feature",
      "geometry": {
        "type": "Point",
        "coordinates": [
          15.2700392,
          50.4666771
        ]
      },
      "properties": {
        "@type": "node",
        "@id": 5456187983,
        "ref": "M1",
        "name": "Maršov",
        "highway": "emergency_access_point",
        "operator": "SCHKO Český Ráj"
      }
    },
    {
      "type": "Feature",
      "geometry": {
        "type": "Point",
        "coordinates": [
          17.2507974,
          50.0176069
        ]
      },
      "properties": {
        "@type": "node",
        "@id": 5471533536,
        "ref": "BR072",
        "highway": "emergency_access_point",
        "emergency": "access_point"
      }
    },
    {
      "type": "Feature",
      "geometry": {
        "type": "Point",
        "coordinates": [
          12.7138974,
          50.0096093
        ]
      },
      "properties": {
        "@type": "node",
        "@id": 5501868242,
        "ref": "CH 018",
        "source": "survey",
        "highway": "emergency_access_point",
        "operator": "Lesy ČR",
        "emergency": "access_point",
        "emergency_telephone_code": "112"
      }
    },
    {
      "type": "Feature",
      "geometry": {
        "type": "Point",
        "coordinates": [
          14.1047846,
          48.8704227
        ]
      },
      "properties": {
        "@type": "node",
        "@id": 5513798673,
        "name": "331",
        "highway": "emergency_access_point"
      }
    },
    {
      "type": "Feature",
      "geometry": {
        "type": "Point",
        "coordinates": [
          14.1153856,
          48.8655662
        ]
      },
      "properties": {
        "@type": "node",
        "@id": 5513798936,
        "name": "332",
        "highway": "emergency_access_point"
      }
    },
    {
      "type": "Feature",
      "geometry": {
        "type": "Point",
        "coordinates": [
          12.6066814,
          49.9581271
        ]
      },
      "properties": {
        "@type": "node",
        "@id": 5517058464,
        "ref": "CH002",
        "source": "survey",
        "highway": "emergency_access_point",
        "emergency": "access_point",
        "emergency_telephone_code": "112"
      }
    },
    {
      "type": "Feature",
      "geometry": {
        "type": "Point",
        "coordinates": [
          12.5764623,
          49.9575844
        ]
      },
      "properties": {
        "@type": "node",
        "@id": 5517058465,
        "ref": "CH001",
        "source": "local knowledge;survey",
        "amenity": "shelter",
        "highway": "emergency_access_point",
        "emergency": "access_point",
        "fireplace": "no",
        "shelter_type": "picnic_shelter",
        "emergency_telephone_code": "112"
      }
    },
    {
      "type": "Feature",
      "geometry": {
        "type": "Point",
        "coordinates": [
          16.6505863,
          49.2585215
        ]
      },
      "properties": {
        "@type": "node",
        "@id": 5538222921,
        "ref": "BO040",
        "source": "survey",
        "highway": "emergency_access_point",
        "emergency": "access_point"
      }
    },
    {
      "type": "Feature",
      "geometry": {
        "type": "Point",
        "coordinates": [
          15.9157211,
          50.4678281
        ]
      },
      "properties": {
        "@type": "node",
        "@id": 5540899688,
        "ref": "TU 028",
        "bicycle": "yes",
        "highway": "emergency_access_point",
        "tourism": "information",
        "operator": "Společenství obcí Podkrkonoší",
        "information": "guidepost",
        "emergency_telephone_code": "112"
      }
    },
    {
      "type": "Feature",
      "geometry": {
        "type": "Point",
        "coordinates": [
          16.8083292,
          49.3299054
        ]
      },
      "properties": {
        "@type": "node",
        "@id": 5546262582,
        "ref": "BK020",
        "highway": "emergency_access_point"
      }
    },
    {
      "type": "Feature",
      "geometry": {
        "type": "Point",
        "coordinates": [
          13.9189515,
          50.5534977
        ]
      },
      "properties": {
        "@type": "node",
        "@id": 5548878722,
        "ref": "LT 008",
        "highway": "emergency_access_point"
      }
    },
    {
      "type": "Feature",
      "geometry": {
        "type": "Point",
        "coordinates": [
          13.2729827,
          49.1433418
        ]
      },
      "properties": {
        "@type": "node",
        "@id": 5549992724,
        "name": "A 3",
        "highway": "emergency_access_point"
      }
    },
    {
      "type": "Feature",
      "geometry": {
        "type": "Point",
        "coordinates": [
          13.2872684,
          49.166643
        ]
      },
      "properties": {
        "@type": "node",
        "@id": 5549992726,
        "highway": "emergency_access_point",
        "name": "A 5",
        "ref": "A 5"
      }
    },
    {
      "type": "Feature",
      "geometry": {
        "type": "Point",
        "coordinates": [
          13.3025864,
          49.1843853
        ]
      },
      "properties": {
        "@type": "node",
        "@id": 5549992727,
        "ref": "A 6",
        "name": "A 6",
        "highway": "emergency_access_point"
      }
    },
    {
      "type": "Feature",
      "geometry": {
        "type": "Point",
        "coordinates": [
          13.3090346,
          49.1912999
        ]
      },
      "properties": {
        "@type": "node",
        "@id": 5549992728,
        "ref": "A 7",
        "name": "A 7",
        "highway": "emergency_access_point"
      }
    },
    {
      "type": "Feature",
      "geometry": {
        "type": "Point",
        "coordinates": [
          13.290094,
          49.1397651
        ]
      },
      "properties": {
        "@type": "node",
        "@id": 5549992729,
        "ref": "A 8",
        "name": "A 8",
        "highway": "emergency_access_point"
      }
    },
    {
      "type": "Feature",
      "geometry": {
        "type": "Point",
        "coordinates": [
          13.2998075,
          49.1542303
        ]
      },
      "properties": {
        "@type": "node",
        "@id": 5549992730,
        "emergency_telephone_code": "112",
        "highway": "emergency_access_point",
        "ref": "A9"
      }
    },
    {
      "type": "Feature",
      "geometry": {
        "type": "Point",
        "coordinates": [
          13.2983713,
          49.1587909
        ]
      },
      "properties": {
        "@type": "node",
        "@id": 5549992731,
        "ref": "A 10",
        "name": "A 10",
        "highway": "emergency_access_point"
      }
    },
    {
      "type": "Feature",
      "geometry": {
        "type": "Point",
        "coordinates": [
          13.3355152,
          49.1765999
        ]
      },
      "properties": {
        "@type": "node",
        "@id": 5549992732,
        "highway": "emergency_access_point",
        "ref": "A 11"
      }
    },
    {
      "type": "Feature",
      "geometry": {
        "type": "Point",
        "coordinates": [
          13.3114567,
          49.1365907
        ]
      },
      "properties": {
        "@type": "node",
        "@id": 5549992733,
        "emergency_telephone_code": "112",
        "highway": "emergency_access_point",
        "ref": "A13"
      }
    },